name,latitude,longitude,area,geo_id
"North Industrial Area, Baldwin, AL",30.766754653,-88.038226978,26.705295120366,184b86aa475bfa6c942eed020d9afef0
"Acipco / Finley, Jefferson, AL",33.544172485,-86.836729198,1.54931133521743,c4985358751ed9e97f106aa9dc0aa640
"Airport Highlands, Jefferson, AL",33.581593568,-86.74070155,0.270327652325848,b060e1f941f76c9b6e6887a7db8ee21b
"Apple Valley, Jefferson, AL",33.662268091,-86.690349309,0.525244339189549,5aa3ceb3ce301822581097a88839779d
"Arlington / West End, Jefferson, AL",33.493121679,-86.850582224,1.75416503654836,c70fe7e35bbf0efdee6fc909792404cf
"Belview Heights, Jefferson, AL",33.484856021,-86.897903797,1.06997056324319,7583634188ec42b4b9d2734ac4dbff34
"Bridlewood, Jefferson, AL",33.624399609,-86.705793288,0.245931406293908,c6b6ebf7deb6998577e4da8621334c12
"Brown Springs, Jefferson, AL",33.54751448,-86.7200929,0.302136921593806,1b240669ace69ac8fd4aa4e6599eb2c2
"Brownsville Heights, Jefferson, AL",33.58380465,-86.746632347,0.522137565260278,558651c62db95ebd7136cd2e279731f8
"Brummitt Heights, Jefferson, AL",33.595653365,-86.743894473,0.361776629180345,af01fc920eadd1c902b8a4d9746afb5b
"Bush Hills, Jefferson, AL",33.51319656,-86.861460569,1.09154542083917,10a39fdd0cca1a639c91abd0c383c99b
"Central City, Jefferson, AL",33.522550924,-86.8005496,1.0321122129465,f32541393a5689a2718537f6d2996644
"Central Park, Jefferson, AL",33.489934948,-86.880329853,1.14294735599338,5f86ab6e0464f21d5a38beb1321f2ed8
"Central Pratt, Jefferson, AL",33.530850908,-86.887998694,0.91698722801023,50a52959ec5254361c88fd0022220a42
"College Hills, Jefferson, AL",33.516515237,-86.843184401,0.453617276790362,43946b9dccc2fe96b25f716849794722
"Collegeville, Jefferson, AL",33.553463613,-86.802991958,1.49656015617549,94f25eb688df34b8830edc32bd7497a9
"Crestline, Jefferson, AL",33.516561015,-86.734504791,1.13004885778479,60a4b8e75b7917373bc4fd49f7986883
"Crestwood North, Jefferson, AL",33.534309673,-86.747261011,0.639593382491387,24a1124dfc2cbd7e3aeac6eb59eab2dd
"Crestwood South, Jefferson, AL",33.52044,-86.747471585,1.50354794105158,f6a9c2142cc9128f920e9797d379f7c8
"Dolomite, Jefferson, AL",33.468473425,-86.961625987,1.09448831359452,8f7d2e34ad309affdb127378c39b3b82
"Downtown Homewood, Jefferson, AL",33.479748594,-86.791219664,0.179303524892411,78f7250f2621483347fb2ac1a22af0cd
"Druid Hills, Jefferson, AL",33.5308729,-86.812323244,0.646221942211678,02090f174eec443c561fd22bc3a307b1
"East Avondale, Jefferson, AL",33.5281625,-86.764173758,0.428512487133544,92ce6c6f4bf528276aabd83be66206ce
"East Birmingham, Jefferson, AL",33.542638339,-86.78456964,0.841341073808579,6e8236b5c60f9e993b87e76b2724048f
"East Brownsville, Jefferson, AL",33.438816803,-86.899183228,0.379000054153723,ad040284e5bc9e8ba8d012710e2dea10
"East Lake, Jefferson, AL",33.552419228,-86.73020887,0.858894862022375,b505b73ca323744eb40d1bcc173161af
"East Thomas, Jefferson, AL",33.526050042,-86.839487581,0.42822556789793,8f47b8f892286a08a09c788894927220
"Eastwood, Jefferson, AL",33.52877071,-86.715817742,1.11297310581143,27f5a303a1c67af7c066899454f89998
"Echo Highlands, Jefferson, AL",33.631762758,-86.7211705,3.78810274176663,111cbca30942a4960ae87095cb2a5e65
"Edgewood, Jefferson, AL",33.465509911,-86.811788511,1.33994811521724,b65c6f6584aac31f1cfc641a1f5566cf
"Enon Ridge, Jefferson, AL",33.5271724,-86.830541386,0.303010782753384,3a0f41c379446301fdffc6863d186806
"Ensley, Jefferson, AL",33.510921308,-86.898862108,1.56881861399585,e873c9b6c7e582766033ced550454e25
"Ensley Highlands, Jefferson, AL",33.5022395,-86.886035935,0.958831766709278,e6cc65ea58d99d9a0c730603edfa6187
"Evergreen, Jefferson, AL",33.537048808,-86.822615519,0.453413075355807,33adb0910ba7eaf596b7251c72f4f374
"Fairmont, Jefferson, AL",33.577408247,-86.808096816,2.32005756562421,38879929288e7090221561fa06b03ab5
"Fairview, Jefferson, AL",33.503432108,-86.873408232,0.47116212749249,ba849adf15722de87c14dda95ec2ad8b
"Five Points South, Jefferson, AL",33.498399,-86.800346492,2.18450844988812,93ad12867c78b449b81a4294e5a781bc
"Forest Park, Jefferson, AL",33.516705774,-86.770274721,1.16476514788568,ff8ef66a711cc78ae559f7c7fed6fb34
"Fountain Heights, Jefferson, AL",33.520243,-86.818907628,1.18026189775649,ad2f2dc8f34e59fabb158d361e39fc89
"Fulton Springs, Jefferson, AL",33.618117448,-86.7936875,0.123908583029823,1ea12aec4719a67f3654975d9b4d6cfd
"Garden Highlands, Jefferson, AL",33.4558923,-86.875384951,0.552912028929782,514f264edb56515770b5f7223c695562
"Gate City, Jefferson, AL",33.542632,-86.728693444,0.266546080840174,4e23e5d72201487b330577e54dc967ba
"Germania Park, Jefferson, AL",33.477740417,-86.876988602,0.609108137840393,72a777b608ee64d4fdbd620d19b06f84
"Glen Iris, Jefferson, AL",33.480834254,-86.820251573,2.05673785522486,2905e90d97f5ec273e843091f954aac4
"Grasselli Heights, Jefferson, AL",33.446797183,-86.895225971,0.243108152154207,bf926d8827cf24a1abb8531f7b8b0471
"Graymont, Jefferson, AL",33.508859,-86.842719436,0.43175907326606,199d11a7d496c15c84343da69472c87f
"Green Acres, Jefferson, AL",33.470158353,-86.894139309,0.748018103485621,a5fcfc0f6b15b37aad3c9689adcdee3c
"Greystone Legacy, Jefferson, AL",33.454025408,-86.633790339,2.4280654355303,78bd42e177b26a6a3dbdd5eb31596c3e
"Grove Park, Jefferson, AL",33.481092832,-86.798828868,0.282688724236719,30ca2d8e8926b3595fb73717bcbe3f22
"Harriman Park, Jefferson, AL",33.56264705,-86.794750514,1.1626159766024,553b7377149f66c9bf20630589fe2213
"Highland Park, Jefferson, AL",33.5061615,-86.782178152,0.523519045128935,58c212cae082b67e775794eb79a336ee
"Hillman, Jefferson, AL",33.447162404,-86.903046949,0.122434253025328,54279944df156982947dd1d3aa520c7e
"Hillman Park, Jefferson, AL",33.444873964,-86.901886323,0.0476998419565753,bb5fbf503faee7d8de670bd524d3cbb1
"Hollywood, Jefferson, AL",33.475376111,-86.778798403,0.675788821179529,b03068ebbccb475b6d0903005d2d8496
"Hooper City, Jefferson, AL",33.58562315,-86.847992663,7.42560242791068,a3aaf221c0ed9fe40c4102149a9fd3b4
"Huffman, Jefferson, AL",33.5968008,-86.675759623,2.99154199146511,d60ae7cf2d258aa63b60aa5b2482adfa
"Industrial Center, Jefferson, AL",33.452619124,-86.880538873,0.108395832612398,21739906777342569ca4d888c1f53808
"Inglenook, Jefferson, AL",33.56338489,-86.772423494,1.87210488575872,937d0f86eac5d711b250ecf6fd2be6be
"Jones Valley, Jefferson, AL",33.466127048,-86.882530111,0.89685660620181,391dd76cf8fbfdecb3318b3a823b8d42
"Killough Springs, Jefferson, AL",33.614295514,-86.700357506,1.89268039966256,ab1f4e21ddac33a08b220251ca131972
"Kingston, Jefferson, AL",33.5432922,-86.772365305,0.967325977294696,19485678890efd9f1aa5aed5930f956e
"Letson Farms, Jefferson, AL",33.3251491,-86.995233666,0.358145711748654,eff968325707cae11844410c44200723
"Liberty Highlands, Jefferson, AL",33.580670339,-86.653340574,6.50029829371422,5e924f8c96c99cc2674c512f46102e42
"Maple Grove, Jefferson, AL",33.604278752,-86.728038652,0.617499478635993,877937ab2611b1e6b7f6d0eff26694ac
"Mason City, Jefferson, AL",33.469754398,-86.851481155,0.792558363668879,6be70a1f213abbcc543d016d358941a2
"Mayfair, Jefferson, AL",33.470387415,-86.793411978,0.477530767977913,afc19536a92655f5633d1d9bf3842af3
"North Avondale, Jefferson, AL",33.529097113,-86.779220574,0.972425369959748,d4305b4d5ba67d984e9ad140394773ae
"North Birmingham, Jefferson, AL",33.55016582,-86.820595051,1.25707113587476,96e96c30f9a23f2481b46601a4dbac10
"North East Lake, Jefferson, AL",33.570070712,-86.733741552,1.65038385346988,babbf1336390a42494a8bd02ccc880bd
"North Pratt, Jefferson, AL",33.541945213,-86.883228992,1.10670287021388,ef1204868a277ef2edca2b5fc4c56a54
"North Titusville, Jefferson, AL",33.498509711,-86.82708583,0.67978955101133,a96477c4fed257415a9ef05ad218042a
"Norwood, Jefferson, AL",33.537202,-86.801096273,0.997825907676322,0a6370f93b9465826a0cdc1055a1130b
"Oak Ridge, Jefferson, AL",33.5283032,-86.924041065,0.15309900855979,7cda9385deb2fb531a4d69ac0096a1e1
"Oak Ridge Park, Jefferson, AL",33.535830527,-86.733150084,0.487132050011297,161fe9fbb472d4e296259839a4fd2417
"Oakwood Place, Jefferson, AL",33.487597508,-86.865331937,0.786182603258712,c115b604de31a32fc9c758fc77092232
"Oxmoor, Jefferson, AL",33.423975153,-86.880530444,12.6447641017295,87a5d3d92ceba12a0c08d1890420d9d1
"Penfield Park, Jefferson, AL",33.594827503,-86.728751106,0.556245319278035,d7adacc0ecd2e2ee8c6f2069eb1e6819
"Pine Knoll Vista, Jefferson, AL",33.599197735,-86.738402656,0.349547627697931,9164a42c0fcabe743b7ee4572993dfe2
"Powderly, Jefferson, AL",33.46250726,-86.862794806,0.634195094954991,d0a4b1f30e43bcb364862f4385b907a9
"Redmont Park, Jefferson, AL",33.498365751,-86.782927266,1.47677031586924,ea268ea18f76aa9c18af1246f43549c3
"Riley, Jefferson, AL",33.456948581,-86.893842998,0.557640862602517,7f0108f9f0f596261122d94f3370f048
"Rising / West Princeton, Jefferson, AL",33.500393,-86.857624052,0.506847524119239,7b409dc315c9c6acc83ba63abc36baf4
"Riverchase, Jefferson, AL",33.34900595,-86.819510876,2.02214405303507,05e60d2f6a3cc4cbb9068712570762a6
"Roebuck, Jefferson, AL",33.593528356,-86.708953288,2.46619873396724,290c01c955d8d3bb3259eb36f9c3881b
"Roebuck Springs, Jefferson, AL",33.578550102,-86.691185664,2.41575794467586,5471f1d29cc7273fe8bd8f1e9e4b03d4
"Roosevelt, Jefferson, AL",33.438323781,-86.931553855,0.79355966883302,5fac2d17501ec02a0cb1cc98217dbfbb
"Rosedale, Jefferson, AL",33.4827011,-86.793921336,0.376922439901265,fa1c7fa753616dd3e4a156b3b87cb706
"Samford University, Jefferson, AL",33.461873587,-86.794634687,0.340117188042162,3068bb9e9390b091a7ceebbb8601fd94
"Sandusky, Jefferson, AL",33.545353283,-86.898016716,0.660332160338657,8773736e90e1c6a9e8dc5b122ef297fc
"Sherman Heights, Jefferson, AL",33.527650139,-86.932799614,2.62811789751823,68d98021ad3cdb375450da0ed241bbd4
"Smithfield, Jefferson, AL",33.510340748,-86.828205922,1.02184663077305,2b6f34d9943a53df8c2c3d0dd740b0ba
"Smithfield Estates, Jefferson, AL",33.566275003,-86.863493466,4.14092985847548,eb0cf4cca8a29281b87fdfc127e20352
"South East Lake, Jefferson, AL",33.558352,-86.710137923,2.8433843173025,18f0790dc434e6e74b0c03d1a4ae59dc
"South Pratt, Jefferson, AL",33.521859908,-86.884422094,0.268980142744875,b01b71ba04c7625a7bad01ea991a8bfe
"South Titusville, Jefferson, AL",33.48897135,-86.832106558,0.605940054613609,9849058f653d44d565b77a926850f65c
"South Woodlawn, Jefferson, AL",33.543706038,-86.74101643,0.240787803781064,c4fc920feeb850346030207226950426
"Southside, Jefferson, AL",33.513742676,-86.791289935,0.965624900518474,0438e5798ccf5c1bdd36bbe18d5df2d8
"Spring Lake, Jefferson, AL",33.614965746,-86.666281672,2.23569661703393,b098ab95577a3c681eb1235aacd072ef
"Sun Valley, Jefferson, AL",33.65475,-86.707302573,0.704546663869796,975a1225fbe8fd0d36efd78cd3fd9de7
"Tarpley City, Jefferson, AL",33.449822853,-86.88944138,0.225768900548055,fbabfb416d8041f8df7b3596c96c7017
"Thomas, Jefferson, AL",33.530179043,-86.857841919,2.73952469137589,d13634205a199fe31b9c0fdf8015c11c
"Tuxedo, Jefferson, AL",33.508195132,-86.888018006,0.273621098129151,35488c832fd0bb0ad83b29f215eecfdc
"Wahouma, Jefferson, AL",33.556629176,-86.737601885,0.477219646971024,639c78c333a93b0f8e0f77fd0a8a49cf
"West Brownville, Jefferson, AL",33.440271922,-86.910243622,0.251285354050525,1af59b99920fc20a9b0157c9cad93a4e
"West End Manor, Jefferson, AL",33.476506534,-86.858770091,1.03423362955118,bf6d9bcd121397cb10fd09750208df99
"West Goldwire, Jefferson, AL",33.448904758,-86.882635127,0.15510735694634,e413219b84ef38bb04bfd9018e5d7260
"West Homewood, Jefferson, AL",33.457265619,-86.825114469,0.933595376288269,464d08ca3da5e97e9d3c96b7de643065
"Woodland Park, Jefferson, AL",33.478919043,-86.841313784,0.315902438959709,7c8647b79eab8615bfd9195c0fa26e85
"Woodlawn, Jefferson, AL",33.552756291,-86.752532678,2.58108425822476,e56f0bdb51389e925bf0d71ebe494935
"Wylam, Jefferson, AL",33.503208864,-86.922743445,1.39850292854186,55ed23500203c0209dcc51a3f2bd1d96
"Zion City, Jefferson, AL",33.585105,-86.724786611,0.428379598029105,f9f98f33fbae1937456f53850c802263
"Auburn University Club, Lee, AL",32.630464978,-85.508990357,0.87647813559658,8ddb15242eb8048534352baf0d798665
"Bent Creek, Lee, AL",32.60525955,-85.416596918,0.811903660014565,83ad6cbcbdbbd9ec577c276878348129
"Green Island Hills, Lee, AL",32.539462992,-85.012599716,3.21766156628648,55ac67aa576ee49c87ef5417d179d4aa
"Moore's Mill, Lee, AL",32.592060171,-85.445462097,0.525868112601427,95a5846ba618067c930c95cbc7e102db
"Chaffee, Madison, AL",34.65672545,-86.576190827,0.83630474734725,86bee507d4bc44866bd3e16eaa7f350a
"Covemont Estates, Madison, AL",34.71500315,-86.555952178,0.374341732954684,485ec27a38e4233cab3f8a64f66c5581
"Crestwood, Madison, AL",34.715603,-86.633562465,0.249567671666918,d0f18d9136e430a644ecdccce1ae8228
"Downtown Huntsville, Madison, AL",34.727579846,-86.577877568,2.94818075799098,d850bb47ef7ef0976b534dd123491601
"East Mastin Lake, Madison, AL",34.766108439,-86.578659733,0.41607851006683,250b0b3df33d1ee1ad7a918b4d011823
"Edgewater, Madison, AL",34.669519566,-86.729607739,0.287536999205209,b6cc8fa678c554384b1b135b67e33f69
"English Village, Madison, AL",34.6236745,-86.577962085,0.789274687220567,aa2e93d3d628c253a2dc0edcb0a9df89
"Farly Community, Madison, AL",34.6003071,-86.581161941,0.513666622416782,8d1186de132b785081508c014e4f7191
"Green Mountain, Madison, AL",34.605145782,-86.519499705,5.84806762157567,22055ad8c4abfb84d76e0cf1f17ef19b
"Greenwycke Village, Madison, AL",34.705143827,-86.547461207,0.926428265085322,770b4742f36aec28527b7ed3203de55f
"Hampton Cove, Madison, AL",34.674755687,-86.454763985,2.70590293748135,bb778fc7c25f9a2b53954003e726c22d
"Lake Forest, Madison, AL",34.64234435,-86.731044278,0.846700105180762,4d69ebbd9e020b274958c535eeb8bf9c
"Lowe Mill, Madison, AL",34.7187815,-86.600512407,0.850515764066592,aa5de4ef95c8275c6f061909aa8fecb7
"McMullen Cove, Madison, AL",34.705370631,-86.436723935,3.42799302759324,7511162f67d5066235a6a7ef57fad584
"Medical District, Madison, AL",34.71554215,-86.578062178,0.740949772325299,68dccebdcfca1b91231519a5ccd0502e
"Merrimack, Madison, AL",34.705397157,-86.606388841,1.2338436441367,38a729783784af9705f3908890b4fa31
"Monte Sano, Madison, AL",34.73125355,-86.5330809,8.37296070512605,186bc1853548f48a790385a82ff6af69
"Mt. Carmel by the River, Madison, AL",34.801328741,-86.482504927,1.02609586884538,dab87fe0d5b077341dd3114868f76252
"Nature's Cove, Madison, AL",34.671197976,-86.478324953,0.192377620141133,72635b235f2c44415660ee9ea53a0390
"Northeast Huntsville, Madison, AL",34.7538198,-86.556646518,3.74260695076042,81418c52b314b1d0bd023e290cddb67b
"River Landing, Madison, AL",34.612482567,-86.744561315,0.808196565324255,a2c7f478c7f1b66544690562c23c8378
"Sanctuary Cove, Madison, AL",34.625745751,-86.493022783,0.343870353157921,f52fafeecf38e3b148edb80354f451ed
"Sherwood Park, Madison, AL",34.719851545,-86.664062909,0.480529693076934,aabcda1dd0ed7b00bf61a3e05b5da505
"The Reserve, Madison, AL",34.660762962,-86.725795679,0.523129372234212,9d6c269af43bf0f60b88a1ec97a5650f
"Triana Village, Madison, AL",34.693764425,-86.615219218,0.316792853575284,7b885d1561bb8234a87a216476dc617a
"University Park, Madison, AL",34.7251655,-86.635823088,1.13390262061101,6e0b7ba5d8d0427d0c386e1659aca89a
"West Huntsville, Madison, AL",34.7158275,-86.614455825,0.336140762431413,39a1dea9d0677beafde2304bf50a9d94
"Westlawn, Madison, AL",34.716422785,-86.623633133,0.188311757525375,fc536d0c9ea3c0bbb8fb7691c0b7be1d
"Whitesburg Estates, Madison, AL",34.634010288,-86.575343185,0.52435712664208,5b55d57472de1efb82e58cc003f53b78
"Africatown, Mobile, AL",30.727964002,-88.058559019,0.828191890992313,7b8a4ad71938b16e13d0bc8e19fee22a
"Airmont, Mobile, AL",30.653839936,-88.131524121,1.58745655136784,5df42aba382587eeadad52a615e8cef7
"Alderbrook, Mobile, AL",30.641259,-88.282469144,1.56871290716146,7db649e182afe8c6c6595af9348909d7
"Alligator Bayou, Mobile, AL",30.557886786,-88.102775483,1.96926729437969,29e05661182f45955b543f34fb6dd927
"Argyle, Mobile, AL",30.508297828,-88.14675091,2.69837404126421,141842d75c20ca848eff00dc358d9c76
"Arlington, Mobile, AL",30.655616205,-88.069286386,0.349425237535035,9a8984b2d0eab6d7d2fde79bbc09c5b5
"Audubon, Mobile, AL",30.5656445,-88.143029501,2.56401494716804,f7fbb1b1747bb615dedab0ac9822cc8d
"Autumndale, Mobile, AL",30.7317265,-88.127708687,1.51411072651566,61d3298958f54cfe880171bac4c1e9c4
"Azalea, Mobile, AL",30.774762975,-88.284958965,1.62902578200053,0785946b7dc96c726a458ef3cf22b410
"Baker, Mobile, AL",30.664127348,-88.262630266,1.47768531276973,a6d4252170ad8050d919862f5718434e
"Baltimore, Mobile, AL",30.66705342,-88.065057956,0.591790593224675,5cac7bf3b50fbe701877aea5c264541d
"Bates, Mobile, AL",30.6923545,-88.250870164,4.7437698485629,8b7d6e6ba8027383fe292c0a9c4bb38c
"Bayside, Mobile, AL",30.543885019,-88.091574802,2.57252483548995,3f9a3baf32bf58e4b42acbb2f5396838
"Bayview, Mobile, AL",30.601658753,-88.068258954,1.14043426732085,dd8cfacd1540c43d0801f2ae5505db8b
"Beau Terra, Mobile, AL",30.7344785,-88.148723894,2.4746295661633,1e321fa6a2b71ff43fd55eae0084d1aa
"Bell Aire, Mobile, AL",30.5323625,-88.18110979,2.0491686685143,b9ebbd61084466885597836fa0fd384e
"Bellewood, Mobile, AL",30.714902535,-88.152970087,1.07059216248625,d76c60c0145b4d9277da1a570c99f5ab
"Bellfontaine, Mobile, AL",30.490541286,-88.113127196,1.9184283181898,f1cdc8e6394ce3e0d3ccc1b20582bd28
"Bellmont, Mobile, AL",30.537089678,-88.196754691,1.57514421673837,03ed424ab3d6d991e93d9923a18dd328
"Belmeade, Mobile, AL",30.581724,-88.233475316,0.78456342839516,ba69ecf4b889163f110aeb8bd121ef96
"Berkleigh, Mobile, AL",30.6697065,-88.180629018,1.26375852462082,f912f4617287989c3cb9097d1580a797
"Beverly, Mobile, AL",30.511654,-88.189152895,3.60143055555096,aea46d14927922f499185aad069e05aa
"Bienville, Mobile, AL",30.749578,-88.208439111,2.03595611847089,4cfdbe7dfd0b1d54869bf60d8e2dbb0d
"Big Creek, Mobile, AL",30.789783965,-88.268001461,1.37043383797951,bdd4fc2c10bc8ac847558d1e44e70bfc
"Blackstone, Mobile, AL",30.7404385,-88.242469698,2.46001103547545,9e0fb895799f779f4fe18288795b5f80
"Bolton, Mobile, AL",30.6685551,-88.137543121,1.09901648511347,5ce4ce30496fc67449246c53cbdaadc2
"Brookley Industrial Park, Mobile, AL",30.63222181,-88.069764154,3.1601261917297,d9204b5bf74a9267de9c9f536300682f
"Brookwood, Mobile, AL",30.669123593,-88.116533819,1.10078797568358,acba98f15912268e707a256159afe5b2
"Camelia, Mobile, AL",30.7522795,-88.284972486,1.32536659340578,d863ac8073010e4664d5ce9c4d41900f
"Canterbury, Mobile, AL",30.6155485,-88.175887099,1.78379079321019,0705fe3378e96f70fd61a553421f39cd
"Carlen, Mobile, AL",30.67690675,-88.09459893,1.14544286523842,02ba9be02087ef28478239636c128b4b
"Carver, Mobile, AL",30.70588745,-88.089642155,0.925619357939202,f6990e5e280938e80f2de055112d6bed
"Cedar Grove, Mobile, AL",30.55035,-88.226302772,1.92524389220615,a13e692c8bca72cbd0ecc4a9615173a1
"Central Business District, Mobile, AL",30.691636787,-88.047655473,0.946957836577306,022adf50da36a5d78f0b2131c1cf0d01
"Churchill, Mobile, AL",30.576467,-88.249949899,1.70419367234161,d31a46263b436d15cfa0ff60f6138a69
"Claremont, Mobile, AL",30.6505075,-88.183207945,1.06628857592901,9cf9dfc4dc2900966af3a7fb5cfd9640
"Cody, Mobile, AL",30.71929909,-88.199310247,1.22142750519567,4712ab74b62559b51861ff0fc3584624
"College Park, Mobile, AL",30.698532642,-88.134256468,1.94905865403852,07a309a13b40ad5afdcd8caf14ba745d
"Colonial Heights, Mobile, AL",30.728461814,-88.181293621,1.82652276730877,aa395398544324851bb5218b6ac1146e
"Cottage Park, Mobile, AL",30.632165205,-88.263023459,2.38259704325214,149eb243117c4e80e306b88a67cc43dc
"Country Club, Mobile, AL",30.683186865,-88.159031896,1.11298897186965,889ae6071ee160794399346f7921924a
"Crestview, Mobile, AL",30.621372771,-88.147906002,1.64781919404458,c6e331042ee019731147d6bdbcaebcb4
"Crichton, Mobile, AL",30.70413953,-88.112883475,2.2820385254254,3edee724ee6efbf6e87c69636629d692
"Cypress Branch, Mobile, AL",30.55326,-88.276143616,2.45860750224314,159aa2a30132391931c1d960271428a6
"Cypress Shores, Mobile, AL",30.589969953,-88.132817612,2.43876234411293,68eab4ff5d71ad5db291ad4e0fe38af9
"D'Iberville, Mobile, AL",30.628599,-88.238326643,2.33997959080562,3f55e7fd210d96e8adbc9f35babb567f
"Dauphin Acres, Mobile, AL",30.682967709,-88.113942167,1.27180234984592,418c26a610f6998deb5ee09ed3f27412
"Dawes, Mobile, AL",30.603245172,-88.273232468,3.21256173431061,c4b9e3ec1ae188b107063c59166a7355
"Deer River, Mobile, AL",30.516621885,-88.109631212,3.13523830773039,4619534930c018dedcc1ff30d5055de4
"Devonshire, Mobile, AL",30.60241285,-88.199228993,1.77230089757595,b2ac63aeb70137bbfa00d32cb2136cc7
"Di Grado, Mobile, AL",30.62773455,-88.216219556,1.46998033694291,01dcc37abc067e2e96876c3c0630d3d1
"Driftwood, Mobile, AL",30.578727253,-88.079450836,0.954997903810546,45e16beb41cb5a25cba2141660f8e88b
"Edington, Mobile, AL",30.791085039,-88.183184538,2.11222413972127,ad9fdbd20db5b96f8f09d295af153cfb
"Fairview, Mobile, AL",30.725924,-88.23643807,1.28405448569565,d094b8ba969f27628e7a45061750ef5b
"Ferry, Mobile, AL",30.724576162,-88.216683782,1.9113071947855,fc98487092474df0e78a7a581af9b51c
"Fire Tower, Mobile, AL",30.7741465,-88.268059551,1.16156651809063,4bda3b98ccc646e27bbf9f4e69a4d73e
"Fisher, Mobile, AL",30.705220271,-88.066336598,0.76931593918362,fc1144a83afeb4d6c4a6e7c0b5f3943e
"Forest Highland, Mobile, AL",30.735008,-88.168753234,1.4539719602686,c80ab7e5670d95641c72534caffcfc9f
"Fowl River, Mobile, AL",30.5250415,-88.222727152,3.62857838069325,b2d15665de4cd7a9687157188c71c453
"Garland, Mobile, AL",30.757971386,-88.197295451,1.72977518721924,826a0e925104b44c66c3ec3604876843
"Georgia Avenue, Mobile, AL",30.68769,-88.060047302,0.319793842341813,fa1eedb08ace1ac450ceca6c1d1b52c2
"Glen Acres, Mobile, AL",30.709635,-88.2419998,2.70140137544792,1ef2429b6363f6dbff1cf0d031ba5767
"Goldmine, Mobile, AL",30.603474389,-88.249740346,2.1707058588785,98ec1d277aa6dd077ace44fc4fe4a56a
"Gorgas, Mobile, AL",30.711872519,-88.078781663,1.30055094685379,08c807d1c2e73bd0423f352b4037bbfb
"Greenmound, Mobile, AL",30.711639753,-88.101080545,0.541271531225073,551e647f59232e25c2c9dc90200564cd
"Greenwich Hills, Mobile, AL",30.656093,-88.151837804,0.736514792344522,ed0caa08631ba94aecc473d5e89743fe
"Grove Hill, Mobile, AL",30.5196065,-88.256048078,2.1993250017595,37c74cc40db85011b25dc2d1a172b7f1
"Hamilton, Mobile, AL",30.57991823,-88.271177323,2.45381773152315,21a478d55a325036c2abb8bfb79c91d2
"Hannon Park, Mobile, AL",30.6825858,-88.073842136,0.434557701954266,290801a89318a9d2f374c6b1e9f53611
"Happy Hill, Mobile, AL",30.721701843,-88.073037906,0.427905805987944,4750113a23589ef865ae8ea964b1eda0
"Highland, Mobile, AL",30.6886065,-88.216507658,0.513240282377245,9fb6157082db5e73788e03cddbcf3cac
"Hillsdale, Mobile, AL",30.6994025,-88.199190467,1.22067685716105,0f38116b775450b14efb6547b3232b92
"Hillview, Mobile, AL",30.569415743,-88.205211268,1.65784706273291,178fdca1140910fd7921675d71615d8a
"Huron, Mobile, AL",30.796075976,-88.228887128,1.91660567849838,984766a9787119272eabbd9f357924c4
"Irvington, Mobile, AL",30.50983755,-88.219851926,3.18674343404684,16f3c95e2082d3734d21cbb72b3163cf
"Jackson Creek, Mobile, AL",30.554321089,-88.255019235,1.74636869539152,8ed9c14fdf230fe1ef01315e2de9b7e9
"Jackson Heights, Mobile, AL",30.668845,-88.160708603,1.10660887280943,9c6573c396e07ec0162ba7b7e21eb2f5
"Jefferson, Mobile, AL",30.5643375,-88.229073783,1.86606924891632,44ca9bfdfff4cc2e96a0fdcbb820c624
"Kimberline, Mobile, AL",30.672375,-88.238136558,1.7806802349893,4656935e5c3685101cf316d45764f0ee
"Koolman, Mobile, AL",30.575036059,-88.161915803,2.76095331297408,6772c16a25338d26f3d1c5cc36466e1b
"Larkspur, Mobile, AL",30.581606219,-88.213549724,1.2215180175544,2a0ff8ce3a9da5264789e8e43ff69535
"Leinkauf, Mobile, AL",30.678115,-88.073517867,0.325083402984614,c6964c6b3c43678efe6d3881ee7a8136
"Llanfair, Mobile, AL",30.68221476,-88.137792326,0.857359294038658,94999e8b96e1c8e1ec45ab899a17d900
"Loma Vista, Mobile, AL",30.743752253,-88.148249869,0.989256477046679,41dd52ec77213d5b2b1efd676826db03
"Lott Road, Mobile, AL",30.805486512,-88.246905711,1.76546235586483,bc993a6472148363587eb3d019afed7c
"Lourdes, Mobile, AL",30.586441367,-88.093257138,2.7144426431703,bac3694b4dea20d7af94aa34e699afd0
"Lyons Park, Mobile, AL",30.693972225,-88.074445683,0.634181914375733,ee0b94a056d134dc7d761687a7582bb7
"Malibar Heights, Mobile, AL",30.65423565,-88.1702798,1.13564278835993,dc22e99d217953729887f0aef039e49c
"Marine Street, Mobile, AL",30.667234,-88.057503662,0.149655525177666,8571955971aecbf30aafbf83ebb0f3b1
"Maryvale, Mobile, AL",30.65210055,-88.081818857,1.14793982577282,e8df9971441fb5913aff34e3c353c151
"Maysville, Mobile, AL",30.6684725,-88.076361719,0.671618846054901,59a0dc1dd8d820a39b462a28d77e9e1a
"McCrary, Mobile, AL",30.813727641,-88.265848844,1.3791720294665,5d64528681c510cf3f9a5960f53d6f6e
"McVoy, Mobile, AL",30.607034128,-88.087799288,0.975443839421326,13b2260fa05bbe36fe09425364cb90ea
"Melrose, Mobile, AL",30.678767794,-88.265635213,1.35862661426481,c7ee7da505fc8f40aea99548dd7bbbc7
"Mertz, Mobile, AL",30.6525255,-88.113433298,0.726037993449047,b4d138a85da28c95d9a151799ba61dfd
"Milkhouse, Mobile, AL",30.6252851,-88.199264127,1.8884510208063,2022091ab6f5614f15cb1e51aaa2ad51
"Millers Creek, Mobile, AL",30.657428644,-88.282426012,1.75712645233216,4030ba2933c226173a371dc6b94eaba9
"Mobile Terrace, Mobile, AL",30.700649489,-88.216557793,1.15481770537379,6de85330270b1b515e041e74ac4d6d9b
"Mohawk, Mobile, AL",30.764490153,-88.182159753,2.26615699501276,646a96fdd1934059aedaab0145c9f50e
"Mooncrest, Mobile, AL",30.7577381,-88.234489997,1.44185523107802,61c0782f81c30d9596688aae20a8bd0a
"Muddy Creek, Mobile, AL",30.534305964,-88.160051424,2.60475467907902,c29ec116491371583cba0d97daf3ca66
"Navco, Mobile, AL",30.63992773,-88.111351852,1.00690102134903,e395733002a5adb8bd1855af5f48c13b
"Neshota, Mobile, AL",30.625138086,-88.094290794,1.25975766738979,d6e1705ea352b2a55dc8f025d10f3aa2
"Nevius, Mobile, AL",30.5998307,-88.178408138,1.79673951036332,460bc6d986df836a7959df5a8d00f5be
"Oakdale, Mobile, AL",30.6661335,-88.053292191,0.223046039474456,24aa4cb9c68e18a60031969fd87ea194
"Oakleigh, Mobile, AL",30.720549,-88.094341554,0.416608440596694,0f73121b00d97ea8f352097bc9010899
"Orange Grove, Mobile, AL",30.70472226,-88.051713892,0.249678027593575,a79deba0b18edddaef1239afec6824c8
"Overlook, Mobile, AL",30.713911177,-88.179883783,1.09599781464255,9b83a164c2f93769bf67708f9a1d8b34
"Overton, Mobile, AL",30.650553,-88.199239697,1.44937787711636,7d2afd49bde550f1ce6ce05eb945ff03
"Owens, Mobile, AL",30.699686767,-88.058561895,0.621371361184376,6e4c3f300934d6f0b442c4a7e1a43446
"Pamona, Mobile, AL",30.7872675,-88.251129358,1.29647443597118,ebd9f635025fb8e79d3b6c72cf24a2ec
"Park Place, Mobile, AL",30.697871719,-88.099851658,1.18729080372844,aab9a41d8fda704a35c0cd9892d03f0d
"Parkhill, Mobile, AL",30.699536052,-88.159227313,2.63795496578488,eeb6a460c0d02f848c8362f1815592a4
"Pierce Creek, Mobile, AL",30.677174,-88.284703173,1.5019111360948,ad5a2ab6060bce16b234dfdbef62280a
"Pine Grove, Mobile, AL",30.712288393,-88.130849297,0.772081399240854,4109b2c9322d7c847e60edd158be8aa1
"Pinewood, Mobile, AL",30.736072788,-88.204216228,1.65111490064998,a73d0fc71c43a11b9db35301738149fd
"Plantation, Mobile, AL",30.5678258,-88.181484896,1.72694530863951,157717b674c6a120dc34311e4dad4967
"Plateau, Mobile, AL",30.739806402,-88.061023585,0.806482463655703,3419a57e3c3e7dee2d46eb0f588aca0e
"Pleasant Valley, Mobile, AL",30.65895024,-88.118193511,0.548031557828795,ac14319bbc62308d2e8fa83813d9f540
"Prospect, Mobile, AL",30.604950194,-88.233309429,2.04608253364385,625da3f94be6ea60e6c22f2160d762fa
"Red Creek, Mobile, AL",30.777000428,-88.234139351,1.31441015840531,5d1a35356f25969d0b2d54ec00453a32
"Redstone, Mobile, AL",30.751193,-88.263793625,2.30668587966015,6432047dfdc1695c0927ce736dab5f69
"Reichlieu, Mobile, AL",30.6852965,-88.198227493,0.612603541984137,f30d3fabe1a3ef82f84616b9cd1d4fb4
"Rickarby, Mobile, AL",30.669858542,-88.092006535,0.963895685030922,d0631f964b09f6acea3b434494b198d0
"Ridgeway, Mobile, AL",30.811825086,-88.21081729,2.73616388442566,e1c1e5e7872b46ae839f29d80f674080
"Riverfront Industrial Area, Mobile, AL",30.669914586,-88.041530979,3.13426592701279,c053a67cdf1dd91483c7106efcee0368
"Riverside, Mobile, AL",30.599036819,-88.10560462,1.55241830013204,1dc831a84de4b5beccfe098c10e317de
"Riviera, Mobile, AL",30.650233853,-88.09200135,0.600088013764472,fc478d8abf2f45c5c989f43dbbddf0ac
"Riviere De Chien, Mobile, AL",30.606784253,-88.124031606,2.02309853177569,356bb5990e21d991bbc70bbd835abda0
"Rochon, Mobile, AL",30.570993919,-88.119807713,3.23131098373014,9d05c028810729a65323548606637889
"Rolling Acres, Mobile, AL",30.634698,-88.182397146,1.1332848301747,f6763d62cd4cde3e0d292aaaddae44a1
"Rose Haven, Mobile, AL",30.813513735,-88.180015457,1.50721563776627,1511770f6974faddc8157971b235eb1b
"Rosedale, Mobile, AL",30.625215,-88.081229826,1.158545154295,abf8a371822215e4f97f0390ced5eb18
"Rothfield, Mobile, AL",30.724180043,-88.263490593,1.6837099876562,1ee566c4efd097ef3e6ba52294643aae
"Scenic Hill, Mobile, AL",30.736100753,-88.277609688,1.81627395842872,629ee4d938960cbda39f586cabe15727
"Second Creek, Mobile, AL",30.648610382,-88.216175302,1.67057630642762,8aac546e3a3cc87c1d094f3fadb53a6d
"Seminole, Mobile, AL",30.7822895,-88.212837963,1.44817432940109,b3ba9c80558d67e2d1feb1db9ec903f4
"Sheldon, Mobile, AL",30.6742655,-88.216582762,1.8038336825304,2d9d737d7952ebe853da8be52c65986b
"Skyland Park, Mobile, AL",30.635888167,-88.149867762,1.60361074010196,9703f7a94871c01b445185363e7c7132
"Spring Valley, Mobile, AL",30.634627,-88.129095924,2.14348945390653,01ccfecb1b6676574c05894aa41b3f12
"Sunnyvale, Mobile, AL",30.767500231,-88.251138011,1.09142783578594,026036a8ebc202f6133b07a0f6fa792f
"Terrace Hills, Mobile, AL",30.632386328,-88.165525424,1.9700285758039,29ddaea4c7a134605b1d953048896144
"Texas Hill / South Oakleigh, Mobile, AL",30.676672,-88.060636911,0.369814921601067,1118afbfa606ecb5fe0f24ba0ebba7e2
"Texas Street, Mobile, AL",30.6779026,-88.048694528,0.512346255373093,3719cd7a0fcbe83273d6f71c9ab4e65a
"Theodore Industrial Park, Mobile, AL",30.534433509,-88.128459251,6.13400638203876,c50248c6fa3aa78bc4b58fbcd30fe14a
"Thornhill, Mobile, AL",30.6737732,-88.199195817,1.4702978766215,4ad1073909f20c8f0e7c19e43c690e91
"Tillman, Mobile, AL",30.594878035,-88.161711735,1.22716333065719,4d28be4f18c236e5ae4866556543ea5e
"Travis, Mobile, AL",30.6031455,-88.216440098,1.96618722340828,ba5f73442a87cb3850c883b5db3d95b0
"Trinity Gardens, Mobile, AL",30.728744112,-88.108537211,1.4244560541171,984a63a61bf46f3d36549d320662cded
"Twin Lakes, Mobile, AL",30.792382476,-88.206515883,1.55255860684755,373c37a7d9bc5ed71dea5ed372144a82
"University of South Alabama, Mobile, AL",30.6968933,-88.182294597,1.04263493205901,02a7f972c1b73bbfc66996f7d9c81cb8
"Venetia, Mobile, AL",30.623292953,-88.114143781,2.16970268451142,6a8569382989dd4b813d2d8e69dfb5d5
"Warwick, Mobile, AL",30.6505055,-88.252864657,0.868913341827476,7db5f7cfc5d6d708306b8b426f4a059c
"Washington Square, Mobile, AL",30.682626,-88.059441456,0.235266602712491,deb768f4c12150821e12c1e847e1fcf7
"Westavia, Mobile, AL",30.7674745,-88.217128039,1.26169382985232,f5e08bf97c4239ab3e6b2d9ad83602ea
"Westfield, Mobile, AL",30.54509081,-88.215046876,2.51647702863394,005c835691c54020f35be0ada691797f
"Westhill, Mobile, AL",30.6831274,-88.180162894,1.09866895714935,b2a1f1eed7284c95717e930398f0803b
"Westlake, Mobile, AL",30.628378,-88.283603683,1.13550397638228,524babf76387961f1036700f5e138b62
"Westmont, Mobile, AL",30.579024064,-88.186807924,1.81720610418382,8b36c143f75940b00e118d62752fcd06
"Winfield, Mobile, AL",30.534479,-88.264027228,2.45522686477946,9d216f224099546c9b74dc80e7155bf6
"Woodlawn, Mobile, AL",30.647845453,-88.099229004,1.11118041681199,a026aabccf9a2946869036aba30da7a5
"Yorkwood, Mobile, AL",30.6506881,-88.23561639,2.05511065881052,9a394aa2e3dabc2030653ba5cb93d5fb
"Bell Street, Montgomery, AL",32.3743045,-86.334378504,0.948479759832776,c90512744a4ff128bbc3a91f91c7777f
"Bellingrath / Cloverdale, Montgomery, AL",32.339153588,-86.314140425,2.90349128291908,ae586d786f0f08830548c125a9c33a59
"Brentwood, Montgomery, AL",32.339687925,-86.254521755,1.06264678407186,d06ce894528b841fae7f7625a5b5de19
"Capitol Heights, Montgomery, AL",32.38137124,-86.28124175,0.629647574083178,a8a56b5c138cdbdec8810ba7594325f1
"Centennial Hill, Montgomery, AL",32.367488649,-86.291595681,0.957420729235709,45740a674373520d32bdc78c2a374d51
"Cloverdale / Idlewild, Montgomery, AL",32.3482535,-86.29574966,0.240209337105695,ea88d3fec9ce9d51842d3a5127d9f819
"Cypress Creek, Montgomery, AL",32.3906265,-86.28853009,1.49341472175819,823f7c1c7c53a296cb02f7f4035cf939
"Deer Creek, Montgomery, AL",32.329569419,-86.140750596,1.27834656351859,55369ae2a07a8d43fd150b9703b27bb9
"Downtown Montgomery, Montgomery, AL",32.3755641,-86.308288806,1.06902098766159,2f0d626a7ba571b643b2b2118ffad50b
"Edgewood, Montgomery, AL",32.344448132,-86.286658612,0.538675427778201,2a6e7477992365e7838f19a86273dbc4
"Five Points, Montgomery, AL",32.370492,-86.315581056,0.315923021548254,3358bc22f80a2dc92f7777ec829399e6
"Forest to Zelda, Montgomery, AL",32.359217,-86.27547901,0.855973276280801,521ccfdc622cae0aff6c969d49972d65
"Garden District, Montgomery, AL",32.359718,-86.304245054,0.54208552312257,db7f4a0ef2857daed7011d180a62d8ad
"Highland Park, Montgomery, AL",32.373354766,-86.278950899,0.642323644825554,cb69aa71be304ac7bc917dd3f5110cd1
"Hillwood, Montgomery, AL",32.3584835,-86.254385865,0.704137274768101,ab6f61ce820d5a92e96f9c0d10bf2c81
"Lockwood, Montgomery, AL",32.338145161,-86.279211269,0.102475988302837,92403578343b0381a2a33b92e60e3032
"Maxwell Air Force Base, Montgomery, AL",32.383820919,-86.353914909,3.66689686633099,e1a68e868c69abed1631b01dd40cd6c4
"McGehee / Allendale, Montgomery, AL",32.341060094,-86.268439991,1.19681534094999,cc195ca2dd3173fec3b44b84f0cb2c2d
"Montgomery Country Club, Montgomery, AL",32.3524135,-86.278336374,0.32830576667285,ca9da9498691e39ea4adeb5a1d8fb66c
"Old Cloverdale, Montgomery, AL",32.357388444,-86.291250235,0.592506774055016,bf6edf2cd534411a8920e976b6d34df0
"Ridgefield, Montgomery, AL",32.343713337,-86.247671018,0.70473173607677,4dc21f34d8ad9a75c2fbc0a919a36c22
"Rosa Parks, Montgomery, AL",32.3597985,-86.315052492,0.834808864527908,5b375c27e4ce380449e3397b815bedf7
"South Montgomery, Montgomery, AL",32.309765983,-86.241219502,12.2703172639659,de95d998cd71ea8a25cc6d41f8151bbd
"Brookstone Estates, Shelby, AL",33.35897365,-86.748160383,0.188589547343737,063fc45f6c9bd75830cd25e1f245ca57
"Chelsea Park, Shelby, AL",33.339545957,-86.582623947,1.61854830959138,149cc6ad757cfaafe8a224eac2a59ce7
"Eagle Point, Shelby, AL",33.39293,-86.674218133,1.04686061350215,218aea8ad3dc04c2138fc8846e60b29a
"Greystone, Shelby, AL",33.428710745,-86.647637162,3.17572813006651,9512cf5fc0e0d823bc6738ff8d9f1ade
"Greystone Farms, Shelby, AL",33.421721179,-86.635575516,0.506312408861217,56274d1b804092d9b088820322557a96
"Highland Lakes, Shelby, AL",33.397429818,-86.64987305,2.58744886730818,c6917965ac0ac5c5010cbebac757683d
"Saratoga, Shelby, AL",33.079286,-86.751875522,0.0399311423325373,fb7e8e605e6118bb8ee1e6e8ceaa7ed5
"Shelby Shores, Shelby, AL",33.12998885,-86.479835739,1.21783502151465,5727fb1c5feefcb45a73318bc694d143
"The Narrows, Shelby, AL",33.3651165,-86.667561371,0.620201026755452,4f111952079b6f2447ccd1777dd0d6f0
"The Village, Shelby, AL",33.40771948,-86.639338595,0.410636658637434,976ed1b6ec1cfde5c60d0c518e2587a5
"Waterford, Shelby, AL",33.166652791,-86.721119057,0.748382107929558,d649131ad10f5ea28532fc0989077fa6
"Willow Oaks, Shelby, AL",33.32847975,-86.543885396,0.133179183363531,0399f22852a5b59dbe5cddb56ffb1973
"Downtown, Tuscaloosa, AL",33.20895215,-87.569008397,1.06461152642041,20fc747422dd1880a73f4ccd58e10ea9
"Forest Lake, Tuscaloosa, AL",33.19482935,-87.534615929,0.874437044661074,5d05fed086cbf8761489c81022d5f0c6
"Greater Alberta, Tuscaloosa, AL",33.2111015,-87.505933096,4.42374884369201,742f0b847c22baaa78e033d37b1986ee
"Million Dollar Lake, Tuscaloosa, AL",33.2783754,-87.144157639,3.59934373006428,683131cfd77688e13957d9d0c5ce42cb
"Northwood, Tuscaloosa, AL",33.2549408,-87.587028904,1.38057594420487,4389b19d0f555e8d7a0f5b7f2ce082e9
"The Woodlands, Tuscaloosa, AL",33.15744915,-87.466703624,1.5856895408895,e29702b18c9b00e007c84fe2efef9c71
"Townes of North River, Tuscaloosa, AL",33.266884487,-87.523610445,0.326483059994518,918cb1a8750f21653c6e96676d348377
"University of Alabama, Tuscaloosa, AL",33.212500451,-87.539382911,1.7402609407635,809204e6c2d09a6232b527fc50ce0e3d
"West Tuscaloosa, Tuscaloosa, AL",33.188508891,-87.598040559,12.6184005835589,42ef4bfc59c8c321caf064392ee384f9
"Amberwood, Coconino, AZ",35.184785805,-111.581422234,0.195725867180467,7ea400cc428609c25661eda3b207c8b6
"Anasazi Ridge, Coconino, AZ",35.22577106,-111.664083373,0.106965330476156,4ea29a73e1af288fd8c90f0e6ea3d5ec
"Bennett Estates, Coconino, AZ",35.158219687,-111.663026164,0.18279422237367,6d6bd016debeba07566ffbcbf6a9213c
"Boulder Point, Coconino, AZ",35.180774786,-111.678258026,0.247176028772108,713adf90016f569911025f257ce2a94b
"Bow and Arrow Acres, Coconino, AZ",35.16254905,-111.658730249,0.209876933250208,d4a2a60ef44e9848b548ecb8abc8d5c0
"Cherry Hill, Coconino, AZ",35.199894964,-111.64133471,0.13642784370113,0dbecb66e3d9eb6ee9784a3cc006c5d0
"Cheshire, Coconino, AZ",35.234182822,-111.671364428,0.365787450570082,a7a07a311294c50779607674d45d587e
"Christmas Tree Estates, Coconino, AZ",35.237084318,-111.57588954,0.0936209486390174,9bede05268d39b74e7566da8972bcaf7
"Coconino Estates, Coconino, AZ",35.21600895,-111.650847856,0.279373725543884,eb907706ce58de409d69b2a39ff2b9ee
"Cortland, Coconino, AZ",35.213895349,-111.57586254,0.0901825040776185,7007cf3e10695d66aff207adad8bffac
"Country Club Estates, Coconino, AZ",35.199059301,-111.586624934,1.30869784691416,9ee7a108ed56d15068186b947d070c93
"Coyote Springs, Coconino, AZ",35.230065272,-111.658751238,0.07039649516979,0b37a7a09b5644efdc115450d05ba692
"Creighton Estates / Forest Hills, Coconino, AZ",35.243228502,-111.680492691,0.268807008274335,457f42af5d5508d58d4d88dec5167ca4
"Downtown Flagstaff, Coconino, AZ",35.201484247,-111.646868213,0.232095413357321,fd8722cf276c4a3e3fcd1a6ab0ec8333
"Elk Run, Coconino, AZ",35.203921227,-111.59591448,0.252661372205856,e4456ced6920ade43e4ef304597d6641
"Equestrian Estates, Coconino, AZ",35.177888203,-111.692508604,0.185378577897856,113ebacde18b998645f9e81454c3c146
"Flagstaff Brannen Addition, Coconino, AZ",35.190260758,-111.647265761,0.136564657079284,e16dc83dfba641b17fd8f1d6f2b4a8dc
"Flagstaff Mesa, Coconino, AZ",35.194065353,-111.669999968,0.0931098356641244,37844589519ec75c79c022186babcd48
"Flagstaff Ranch, Coconino, AZ",35.173560131,-111.705968613,0.645467606574122,6be1fc2f16aff939a27701399af8eb4b
"Flagstaff Townsite, Coconino, AZ",35.2015808,-111.653555014,0.21164025876187,fdfdcc40e552cf12d588ac979af0d2c6
"Forest Dale, Coconino, AZ",35.175788319,-111.605420241,0.619740266345892,5fae47b8281ea49230639a9f4b54d8db
"Forest Highlands, Coconino, AZ",35.109633846,-111.69888829,1.74542806991229,785b5e2d1d47668a9904a14a75eda74a
"Forest Ridge, Coconino, AZ",35.182487239,-111.597871052,0.204622550804594,b498bed30e5e405a7678481d903d0252
"Forest Springs, Coconino, AZ",35.198047004,-111.610395728,0.0987572538454474,d3486b1ce44006fad0eb77e1178eef48
"Fox Glenn, Coconino, AZ",35.20294493,-111.602965529,0.302939105477814,897626180ef7c5ba07828f0d06199466
"Grandview Homes, Coconino, AZ",35.220686035,-111.620426017,0.0579516498843718,9d3f4dc829a638cb8f27d8ef4af498b4
"Greenlaw Townhomes, Coconino, AZ",35.214877031,-111.609889445,0.0413433104246749,b39c01b8b8646dc6fd8e7e17e9b7cd44
"Hospital Hill, Coconino, AZ",35.215880736,-111.644596194,0.337832375471018,d76f694b6813247e3c0d6d7f0740b7a5
"Industrial Park, Coconino, AZ",35.228887924,-111.566681059,0.3547445884022,08da67c10e345142b1379bc23e23ce71
"Juniper Point, Coconino, AZ",35.173076008,-111.636136428,0.508000473552363,e0895601b5f61092559361cbff898dac
"La Plaza Vieja, Coconino, AZ",35.195636957,-111.660484163,0.117464882796211,068681e13ceeacc4fac26137949a4990
"Lake Mary Road, Coconino, AZ",35.166510183,-111.663948663,0.210420484591517,5d7c43fe202d52efc5ecae439d0cdd33
"Lakeside Acres, Coconino, AZ",35.188014726,-111.591004645,0.419093227156828,2ebd647f96cdfa407244174158330290
"Lower Greenlaw Estates, Coconino, AZ",35.214282386,-111.606819316,0.126354722495081,9dd90d73ff62b0e3f999c996981b429f
"Lynwood, Coconino, AZ",35.232496338,-111.68024001,0.500844304556182,01c134cdef72da2a2df2144d2c0e7b7e
"McMillian Mesa, Coconino, AZ",35.214281867,-111.631946837,1.26618044487868,f9bff9771e4f1d96bd3cb993f852a042
"Mobile Haven, Coconino, AZ",35.223911969,-111.587495886,0.0652779023972375,fc001b0ff96fc0933c9dfbc6fa772e2b
"Mount Elden Foothills, Coconino, AZ",35.222984642,-111.592342494,0.0711569716229805,2f03cc462044cd4e1e277fa0f2221ed1
"Mountain Dell, Coconino, AZ",35.164484913,-111.681376368,0.0639148100717544,37c36e0c914e2b127060d4569fd6cd07
"North Peak, Coconino, AZ",35.258142414,-111.555124519,0.158259308937472,4e44b866c3ccbe5da149b8fe9b0b235f
"Northern Arizona University, Coconino, AZ",35.183451386,-111.653578833,0.89282098374922,2e005ccc66b3257d786922d14295fa76
"Pine Canyon, Coconino, AZ",35.161432133,-111.639343731,1.0186078243303,263c5642e03d14f9ba60076276d89e13
"Pine Del, Coconino, AZ",35.128525439,-111.689657683,0.0681377527483666,dfcc4eadce301485206e3d9b7a3d68ed
"Pine Knoll, Coconino, AZ",35.18480489,-111.643817351,0.174661724433183,fc4988c6b4b6d151afd18f1905ce2af9
"Pine Park Manor, Coconino, AZ",35.21420393,-111.602491356,0.0521833298356406,0c09900425c130bd707b445df620f0f6
"Pinnacle Pines, Coconino, AZ",35.165321871,-111.650427872,0.0837828540638008,6b26a05373caca74d28a485d71256c97
"Ponderosa Trails, Coconino, AZ",35.158950347,-111.671502499,0.588103262787495,009f22ad3c983202145b3e3706670bc5
"Presidio in the Pines, Coconino, AZ",35.18322534,-111.688112323,0.153175193385554,a856fb5c44083e48f65857c67f48f5b3
"Railroad Springs, Coconino, AZ",35.191619633,-111.68324096,0.220741645957446,81b7a1af68f66ac78ea0bfe0cfb3074f
"Rain Valley, Coconino, AZ",35.232996786,-111.536978651,0.516123400471656,5a1c86123ba4c143cc710a310d13298e
"Ridge Crest, Coconino, AZ",35.220505978,-111.658145779,0.105060479421599,a14dc8bd4b109d978f82911c82f5e64d
"Rio Homes, Coconino, AZ",35.184117808,-111.638654715,0.067092757684607,c5245caf8ac1672ca2fdfc5e5fe88854
"Rock Ridge Estates, Coconino, AZ",35.21421749,-111.655836722,0.16303006831641,911aadfeb9380244883e685ac4a44f15
"Saskan Ranch, Coconino, AZ",35.190052668,-111.719376356,0.163664407345901,04a78ecfecff8fe9d6d0feb44651c3dc
"Sawmill Place, Coconino, AZ",35.19041955,-111.643198901,0.0655363383650135,e049e0f8cdf839af0686105386721847
"Shadow Mountain, Coconino, AZ",35.225137396,-111.623207718,0.20877779165468,dbae96b9ab152c53403ebd41f723c82d
"Siler Homes, Coconino, AZ",35.217096116,-111.597990027,0.0312943800749357,b898e8bc568694c12f8826a3da937e6c
"Smokerise Valley, Coconino, AZ",35.232767234,-111.571554289,0.182915045712181,77fd3b14e33a44fc8aae8a0ab3292dbe
"Southside, Coconino, AZ",35.19397353,-111.650739455,0.128283119872214,8a4ff9241ab3a22c683f90ff04096540
"Sunnyside, Coconino, AZ",35.208954054,-111.618170622,0.612353256062215,e13e25ca72cfd11460492265d0b9d143
"Swiss Manor, Coconino, AZ",35.222340544,-111.60337356,0.276791212451941,f08047e30d37c8923af1d7ac17f0bd51
"Switzer Ridge, Coconino, AZ",35.201384908,-111.635267073,0.363293226049859,316e3f0c34c8ce9cc8d076abe8b08a13
"Tanglewood, Coconino, AZ",35.199727315,-111.572809532,0.1536687224666,948710f5f796a73d60fe0d5d8a0c30fc
"Tintagel / Hidden Hollow, Coconino, AZ",35.244420328,-111.698023401,0.761546370047474,eac2f5c07d8605b941d795f112185110
"University Heights, Coconino, AZ",35.171142419,-111.674835255,0.699423616467306,62b25e7c2e5a9a2ea28215d5d54a085b
"Upper Greenlaw Estates, Coconino, AZ",35.219816849,-111.606766559,0.221730520007109,194a14ebc409e5507012344b75975bf8
"Valley Crest, Coconino, AZ",35.237883982,-111.666464942,0.0433087430975049,4f026286161f4d13efb5033c1bc1343d
"Walnut Meadows, Coconino, AZ",35.197693266,-111.569000262,0.154935308104504,c005d69ae4515c0d4c3bde9c1ef38c59
"West Peak, Coconino, AZ",35.194062595,-111.721158553,0.124861548695699,b924c899f83bfc4eb4de756d8a3b4292
"West Ridge, Coconino, AZ",35.217888627,-111.664486571,0.550282889709802,0579b4212613d77c41f5f800c2f60890
"West Village, Coconino, AZ",35.191926322,-111.669876155,0.144944983431907,2406e48e34b57ce1526123528680cf4a
"Westwood Estates, Coconino, AZ",35.185662716,-111.723423006,0.319336816677298,76e784cdd47af696f8211ef4eaead49d
"Woodlands Village, Coconino, AZ",35.182696877,-111.669121918,0.21289268142483,797485da01b5cd190252050b7ce82fd2
"Acacia, Maricopa, AZ",33.573793902,-112.224637716,6.1871060937259,95116260863bd730cb6ed22edd853e1f
"Ahwatukee Foothills, Maricopa, AZ",33.332486,-112.045080323,38.8820924091256,29e4071dc95d63dd4df713bc6011bb58
"Airpark, Maricopa, AZ",33.62302825,-111.90631302,3.49714558243283,62099e333682c556ed92a203db3e94a6
"Alhambra, Maricopa, AZ",33.515217372,-112.108286741,18.8218945396615,680287db135ebbd2ce1e4a744d7c06cb
"Anthem Country Club, Maricopa, AZ",33.858961538,-112.096311002,3.11260453486843,7508f3e14e047d0da564a111d8dd0b0a
"Anthem East, Maricopa, AZ",33.85665,-112.124996162,4.74102128220085,617e144396101cfce81e1cbb25910a57
"Anthem West, Maricopa, AZ",33.874807634,-112.152723899,1.04629330332428,75d3c14dc91fbfb6a365e41e754593d0
"Arizona State University, Maricopa, AZ",33.420317018,-111.931982114,1.1600798832988,736101ad336c4b02358bbc098b31f572
"Barrel, Maricopa, AZ",33.5744936,-112.185924337,5.94695503421948,9bf02480db95a8bcda84024936066117
"Broadmor, Maricopa, AZ",33.403842051,-111.930603898,0.250814128023078,5f5b8381ef617efba42431179ffa75b2
"Cactus, Maricopa, AZ",33.54565435,-112.162196545,5.92523482522963,814a1473b023c7665b7790e283ae5442
"Cactus Corridor, Maricopa, AZ",33.5936114,-111.85357507,2.63044917471389,ecf6a7fc9be7262f0fd12ef061ca83be
"Camelback East, Maricopa, AZ",33.499960015,-111.999887316,35.7453412934994,def8aad98b24f29bde2df264d303c769
"Carefree Ranch Homestead, Maricopa, AZ",33.857919508,-111.88519931,1.39115613161527,51dc2d9324b0bad1de79b061f516136c
"Cave Creek, Maricopa, AZ",33.81621715,-111.940168594,3.93104723143077,a94f88a878175d6a70b928e7a3d7753b
"Central City, Maricopa, AZ",33.4381318,-112.043700966,20.9091102773651,699a2e83a21bb13ab874d33d7d57d7ef
"Cholla, Maricopa, AZ",33.668011515,-112.199181906,11.3178729634213,992f8a66cc73d17e869b409c2e4ca6f7
"Clark Park, Maricopa, AZ",33.4111169,-111.945703977,0.124696160774218,7a87fc1c470740528f8c5f2f907562ea
"Deer Valley, Maricopa, AZ",33.684442292,-112.101748315,57.3953628078841,ba5b34575de85e03c7b2add41fbae51f
"Desert Foothills, Maricopa, AZ",33.740749503,-111.919408572,7.03714280952043,d9f2347c4e9183ddf3396e6e3ed11b27
"Desert Mountain, Maricopa, AZ",33.85936922,-111.85402561,13.2663290521498,fa606834fb93e5b1b6b9c2897ee9ed20
"Desert View, Maricopa, AZ",33.719921384,-112.004088039,72.6093007134442,f55f875a880b9efe99063b75e2608954
"Dynamite Foothills, Maricopa, AZ",33.727340876,-111.817267076,12.9405880146561,b7466955f2455a2638a5883c577cad5d
"East Shea, Maricopa, AZ",33.59318515,-111.79448229,9.72934674747862,1aa0bc5beea6e9a6e28f93a61761d559
"Estrella, Maricopa, AZ",33.326193068,-112.43869954,7.78120811030477,66100af0144876fa19761b7e5aa153be
"Estrella, Maricopa, AZ",33.42173955,-112.194664492,40.7018628375042,788308d060a3f743646c350184178dae
"Fountain Hills, Maricopa, AZ",33.60403559,-111.733306442,18.2707658252818,ffe8ae0c9613b061bebd3bd303b7eb2b
"Gainey Ranch, Maricopa, AZ",33.5675486,-111.917370674,0.991338833427782,3d5efd33b099c7cf5073bfc19bc35975
"Gililland, Maricopa, AZ",33.418348224,-111.956530533,0.25097207238211,f6dd67f913249a1e61b5c5298c2bf781
"Goldfield Ranch, Maricopa, AZ",33.602852934,-111.608297541,8.91894713329533,b3dbd26fe2fd0f6ee8131a0ba5fa160e
"Granite Mountain, Maricopa, AZ",33.784005927,-111.804339063,8.16151033340704,8c4210add65bd560d24eacea923651eb
"Historic Avondale, Maricopa, AZ",33.435390641,-112.342807665,2.51079968778302,aa320bc356a7dd6b11964e12d6b05a10
"Holdeman, Maricopa, AZ",33.41124995,-111.9564804,0.247016862156102,4441ce6253b7d482f23d1624cb72e4ca
"Horizons, Maricopa, AZ",33.613323039,-111.875522585,2.7416213138428,55aaf60e81333dce455cbc0fc5a959d3
"Indian Bend, Maricopa, AZ",33.51141315,-111.917455037,8.6669553525232,ec2090329e64b5154a99e5f8124b54cd
"Ironwood, Maricopa, AZ",33.645665092,-112.252846798,6.38769712211696,5f9b4240bba90f49a85e0cc9959f7a5a
"Laveen, Maricopa, AZ",33.360295718,-112.161492645,29.7225441312816,821bfaf24a2d2b00c615dc210353a7c4
"Legend Trail, Maricopa, AZ",33.7784452,-111.856554117,16.4941287668992,e086591dedd763d65267b11f833edd7e
"Litchfield Park, Maricopa, AZ",33.48637175,-112.36522732,7.28198216200313,40999dbedaa50950e81c21bcb69e4da5
"Maple Ash, Maricopa, AZ",33.4165539,-111.942119232,0.160888436161456,83156013245967c7d4eb90e1ae1a2acf
"Marilyn Ann, Maricopa, AZ",33.411017005,-111.950017168,0.122258675062003,089f22bb1343a368c04875c769db9e96
"Maryvale Terrace, Maricopa, AZ",33.485312907,-112.180422454,21.0129770712273,25cba9ab7f702be3ff33b591ecb291b0
"McCormick Ranch, Maricopa, AZ",33.56031585,-111.900415748,5.04440570281118,88906eca6f1df9f78ad5397030e5c479
"McDowell Mountain Ranch, Maricopa, AZ",33.621377032,-111.844353924,4.99627033382601,50e441aaa9bd9563f19435b736e71006
"Mesquite, Maricopa, AZ",33.766468361,-112.265310395,53.5139568986185,5c7d14d6d721c74156874571047530f7
"Midtown Phoenix, Maricopa, AZ",33.487565448,-112.078036708,10.8843856652529,6f89b40b6621bbf50159bc06249b7c88
"Mitchell Park East, Maricopa, AZ",33.4181264,-111.945747407,0.101324273448189,ce5ff61fe791879d0c0e3922af22642f
"Mitchell Park West, Maricopa, AZ",33.41816455,-111.949727226,0.131304796753065,5445179891b9fa2221508c4840824c8f
"North Gateway, Maricopa, AZ",33.793078581,-112.159599232,45.2827883401032,050f49a2e0106a3a1e311f0e21d27f90
"North Mountain, Maricopa, AZ",33.595210908,-112.103567538,36.6215461164983,f8eca48ba975f3b8223934f12f64d046
"North Tempe, Maricopa, AZ",33.44501665,-111.931739236,3.8107428596807,f01d3262cff69af13a58f727a17977d4
"Ocotillo, Maricopa, AZ",33.5311685,-112.190197638,6.1209291024688,881e3b5eab2f2142f53877d84a80a9f8
"Old Town Scottsdale, Maricopa, AZ",33.496737465,-111.924912595,1.12887371291232,2a6e5dc317c159e2127d2ad42ce9e452
"Palo Verde, Maricopa, AZ",33.609865748,-112.223554185,6.64946333769891,d4068c165c2d275755dfad7bdcfb6c57
"Paradise Valley, Maricopa, AZ",33.54683902,-111.960485362,14.6630626985846,37e7a593b80acc99e32c88de86d94bc9
"Paradise Valley Village, Maricopa, AZ",33.6152296,-111.9801301,37.9592677933365,e8f89c5ac90871fe82384bc876f1b36b
"Pine, Maricopa, AZ",33.5802185,-112.263807273,6.79707179250135,c2dbd123816488fd771d82a0c12c197d
"Pinnacle Peak, Maricopa, AZ",33.705158768,-111.883384075,13.2149229431039,a19701a1f3211587e47cc6d093cb7a5f
"Reata Pass, Maricopa, AZ",33.728284657,-111.862940125,3.63193786130006,bf176cd831fb2150460b0d4a9367932f
"Rio Vista, Maricopa, AZ",33.894194491,-112.19756545,56.3424577375707,1fa2e7e6bf46550864f3b9f8b12abb26
"Riverside, Maricopa, AZ",33.425561397,-111.948273686,0.229903389075776,e187a3d187ffc42201b4d86991968be8
"Sahuaro, Maricopa, AZ",33.61987005,-112.185485866,9.86484941906054,7b0ebcbd45af78184ad4b396cc7ef5cf
"Scottsdale Ranch, Maricopa, AZ",33.575554193,-111.861016273,1.76163450069808,4e118b514fa348503e3f5bb684934542
"South Mountain, Maricopa, AZ",33.38398335,-112.04219,39.475526236727,a322a09b78056355c40c96787fddaeca
"South Scottsdale, Maricopa, AZ",33.472906013,-111.91774239,7.6663113218849,0bad7a8450d02cbd53af9f3c24bf287c
"Sun City, Maricopa, AZ",33.616380763,-112.279161278,13.8519853349725,288f210037f92be9d173990d0528941f
"Sun City Festival, Maricopa, AZ",33.6700234,-112.629006312,3.82601189149634,b75e368880068f76c8dc439f2c6f5fe2
"Sun City Grand, Maricopa, AZ",33.662111698,-112.407006108,6.74727122108977,271e85a0816349d1aec83e9af1069ae6
"Sun City West, Maricopa, AZ",33.66838,-112.356098924,12.9604947480011,b1f89fd6f65ac048b4505214d3ae380d
"Sunset, Maricopa, AZ",33.425507,-111.956623657,0.247901497359886,7fb55a28f2cc7e064685fa6705bdeafb
"Sweetwater Ranch, Maricopa, AZ",33.6042874,-111.871823887,0.396336605410004,ad3e491c4b67cf2ec7458788ccafb235
"The Boulders, Maricopa, AZ",33.781162145,-111.917272261,11.1835981847638,c4c3d88ed379e91bfbb96825fa5eab0d
"Troon North, Maricopa, AZ",33.744922383,-111.860773064,2.43971003242786,2e10566d0295e8a50faa1031c2f691c2
"Troon Village, Maricopa, AZ",33.712426101,-111.838586839,2.47161794954959,7bddb1b0504b09f9fb69de9398f1126f
"Verrado, Maricopa, AZ",33.493760536,-112.520040692,8.32911646507508,ffced164143b9ec1cee5479a43b2cf88
"Via Linda Corridor, Maricopa, AZ",33.579275183,-111.832841564,4.43237059165594,04fd71c5d12bdf15c46b7ef6f91b3879
"Vistancia, Maricopa, AZ",33.761016528,-112.336123264,13.0890527341264,2b57602ba40a18ba506e5d1d26fdca3b
"Whispering Ranch, Maricopa, AZ",33.7781968,-112.733465304,31.3202628503532,730638e7a081bb6f5e408c8f6c0826c4
"Willow, Maricopa, AZ",33.663688914,-112.29645016,10.3061495658495,728c2023928c5e14f8c4b7cba864bfa9
"Yucca, Maricopa, AZ",33.54363635,-112.336547613,57.3233384238087,dc536ae189ceb7496c8d0753753d2e17
"Laughlin Ranch Golf Club, Mohave, AZ",35.138222017,-114.527495002,1.44368614458774,7bc330214a9d1f7aaf7fb506b11ef8f7
"Short Creek, Mohave, AZ",37.005575074,-112.965357437,0.923530372064576,b8d185ce5e5fd3fe11f3e5013a663bec
"The Villages at Fox Creek, Mohave, AZ",35.080306984,-114.545100317,1.70331506867633,0dac37e028d27dfc030c88f906599bcf
"'A' Mountain, Pima, AZ",32.1997016,-111.004001823,0.890345945674337,2e231a4bcaaf0d8b59016f0111d52d83
"Aledea Linda, Pima, AZ",32.208803116,-110.887972252,0.12611349331533,1ab6851a620928223a21b1fcb91af448
"Alta Vista, Pima, AZ",32.322924526,-110.864716544,0.729701442507506,4dbfb20d87c227829cc4f62213708863
"Amphil, Pima, AZ",32.2720004,-110.969536464,0.995115439393194,e9c70260ca839494a5cd441b2ec710b9
"Armory Park, Pima, AZ",32.21599865,-110.965456324,0.360988008792979,e97de1bba03116d0f7cd3c6051f85425
"Arroyo Chico, Pima, AZ",32.21421365,-110.94078082,0.810109433117581,5becf1f8e2df77803f8ba41d25c59a1b
"Avondale, Pima, AZ",32.240038067,-110.879802537,0.248219077634298,03e61e6e4f74280da57585fa5ee71aea
"Balboa Heights, Pima, AZ",32.25396365,-110.97498223,0.176501186542024,23259411415e7d282f2898dc91a1b135
"Barrio Anita, Pima, AZ",32.23326815,-110.981784918,0.134826287258721,c9722e58a888c50693573dd1bf377fb4
"Barrio Blue Moon, Pima, AZ",32.24015165,-110.981687497,0.200151282742315,11a9778b1006b22d3cbcb8f0098dad14
"Barrio Centro, Pima, AZ",32.202418567,-110.931082248,0.252110929908538,084364d21d1b154f6048fc40267cfed1
"Barrio Hollywood, Pima, AZ",32.23248375,-110.99286642,0.480789510728077,383b09f3efb6f874fecfa0e38c37c0ca
"Barrio San Antonio, Pima, AZ",32.214522956,-110.950706825,0.347087805363509,33045f22d08d764e4611646b06060ee1
"Barrio Santa Rosa, Pima, AZ",32.2090112,-110.974109977,0.23662493847837,62a5c83c702841b9f9a715a2543f978d
"Barrio Viejo, Pima, AZ",32.2148577,-110.974866024,0.199094468035952,976bde5b8904eb328ca0614410cbbab9
"Bear Canyon, Pima, AZ",32.249867051,-110.789384099,1.54587318794114,989e3168dbe3f03349c0d68a84286c93
"Blenman-Elm, Pima, AZ",32.243279644,-110.931045932,0.717305268192093,e6201596c4a82d6d00451081ffacd13c
"Bravo Park Lane, Pima, AZ",32.1711825,-110.950933623,0.593956084729421,2af1d5aa6c4f3a9c287420ede4fa65e3
"Brichta, Pima, AZ",32.243736042,-111.01255612,0.182244332742589,8b3112a2e30e62ff412ae9d31ecddbff
"Broadmoor-Broadway, Pima, AZ",32.21789025,-110.930897216,0.255037206199773,d1a90a1a8d56558b9e020d1c98b27e28
"Broadway Northeast, Pima, AZ",32.228725059,-110.836006786,0.546627507679017,6632311d0bca685fb0b8e13d111f97db
"Broadway Pantano East, Pima, AZ",32.21389455,-110.815319889,0.996715463079721,dc5ea220845dd77f4696e60a97059032
"Cabrini, Pima, AZ",32.26136745,-110.922608662,0.245909253450156,8b39469aa005ce06839a807208219ad1
"Campbell Grant, Pima, AZ",32.2539348,-110.93963534,0.252896859229771,1e94a1640f7bdc53c6c8a653ad8c9950
"Campus Farm, Pima, AZ",32.28060685,-110.950275922,1.10496346506247,4e5e86fee0fe65b4176f8f3fdb2f7ac2
"Canada Hills, Pima, AZ",32.40254495,-111.004420516,0.991812011680153,6547b74d13273b1fa7628fa4fe552a18
"Canyon Pass, Pima, AZ",32.469536694,-111.063466502,1.4098702399927,60a2e21397a065908b6558309fd4f147
"Carson Corner, Pima, AZ",32.185566489,-110.832395521,0.996027884876018,94dacd995d4bc4d1f2fee01ad95fe741
"Catalina Foothills Estates, Pima, AZ",32.308365813,-110.935496578,4.40025209261448,48d59269ce94f60226184141d8b36318
"Catalina Vista, Pima, AZ",32.246651864,-110.939665509,0.263448111425306,483b8268158d60d3f0ab0ddd7f5950cb
"Cherry Avenue, Pima, AZ",32.155799,-110.945528281,1.25509167712351,a07ccbd30d1bda32adc90631bee33aae
"Civano, Pima, AZ",32.151518425,-110.76915184,3.26551061355471,b9356d99b7d956272be7e2746916753d
"Colonia Del Valle, Pima, AZ",32.2118459,-110.866587308,0.526818988051141,8b633ab43449de69d5bb77b6e428e59d
"Colonia Solana, Pima, AZ",32.21814268,-110.922337319,0.255544204628929,44cbca148eb3a4466e72908f5e33d984
"Colorado Heights, Pima, AZ",32.26111575,-110.97501408,0.171272743513533,e0629cda96307d5c900fec948095904f
"Continental Ranch, Pima, AZ",32.368855185,-111.124895499,3.40937090349119,e2f1f1e8ef67d17f1bfc6135364d4342
"Continental Reserve, Pima, AZ",32.356154264,-111.121907751,0.992180412402489,3c9120c16509b041b08ca4b9067a6c9a
"Corbett, Pima, AZ",32.19958475,-110.866593047,1.00899530066931,6515a0b09094673ba0c5fb711ce511a7
"Country Glenn, Pima, AZ",32.253994992,-110.931090635,0.251285878733606,5c6d856aaced0cd487c0cfa4cf9a2a41
"Davis-Monthan Air Force Base, Pima, AZ",32.156926516,-110.836907353,16.8232266244512,1954301347e44e4953d8427ec60440bb
"Desert Aire / Loma Linda, Pima, AZ",32.210735624,-110.879353043,0.241989807537544,fd67dd8693f31e5ef5d41d068c895f5f
"Dietz, Pima, AZ",32.19929775,-110.828341881,1.46167293526694,e960e42ff9c6565139535201788829e2
"Dodge Flower, Pima, AZ",32.25416,-110.9140717,0.252238950777802,08b2daa9d9dc7c37c4ff0a8999326c82
"Doolen-Fruitvale, Pima, AZ",32.254080168,-110.922599865,0.249383581605054,0ef8c308b7ef150797f42037f12022de
"Dove Mountain Resort, Pima, AZ",32.472702551,-111.107189856,1.42580787822081,737237f599a6358c388e8bddcef213df
"Downtown, Pima, AZ",32.22191387,-110.974529615,0.284975755822237,a1c7e718fa1e08befb01dbbaaee31464
"Drexel Park, Pima, AZ",32.1559228,-110.958677936,0.299403911272249,106261ff22ef9a8a2b96d619c6366216
"Duffy, Pima, AZ",32.232564046,-110.879770838,0.24990061454673,871a07d2e5488051d1126aba2976cfef
"Dunbar Spring, Pima, AZ",32.23184805,-110.97543454,0.251660795530146,d17f0db91c78baa5a22b87bee3a44fdd
"Eastside, Pima, AZ",32.213905,-110.78125726,1.00458493412192,8b709ad8f5141193e53ac2fec927a04e
"El Con Mall, Pima, AZ",32.224342436,-110.916490576,0.147902475527138,388a4fe9d74edbca44ed9af3cb96e756
"El Conquistador, Pima, AZ",32.22765943,-110.917057342,0.0598584495489657,c905e643b80d58a85f26539a96936ab6
"El Encanto, Pima, AZ",32.225249376,-110.923427003,0.183792610065787,c1a1ca6a7cde94c66ceb944ad01f8e22
"El G.H.E.K.O., Pima, AZ",32.228596278,-110.845333523,0.738633805064724,fefcfa20b156ae5d7c76cdb27dec20a9
"El Montevideo, Pima, AZ",32.225261126,-110.911108653,0.103197043493368,a83a3d72b04f3ec7b7b83a250c35da7c
"El Presidio, Pima, AZ",32.22579055,-110.976512072,0.195040316242127,3a982f73866b7107578ee5034df80cd0
"El Rio Acres, Pima, AZ",32.243310236,-110.995275482,0.935225227296964,00ea788d1e5fc92f1aa2785bf9ac5382
"Elvira, Pima, AZ",32.126588,-110.973578769,1.60527265639245,6eb6e7f7ae0fb02942c938ed2b82c7da
"Enchanted Hills, Pima, AZ",32.188724921,-111.007479705,0.240089236144463,ce73cf14129fee16838f8d54caafab32
"Fairgrounds, Pima, AZ",32.17094415,-110.962226414,0.704063342765312,724d9f2f9443f3ea64dbbade20fb80f0
"Feldman's, Pima, AZ",32.238815788,-110.964313018,0.34025659976877,33c5826c9a52487f0fe590f12f5a053a
"Flowing Wells, Pima, AZ",32.286320709,-111.026402957,4.33502144755968,cdc20486df7fcf737bd6607346ba8a45
"Garden District, Pima, AZ",32.24359635,-110.901154983,0.98942108077846,b12acde65167d33fdc9aae85e74ac9a0
"Gene Reid Park, Pima, AZ",32.2106476,-110.922288234,0.249487277498737,1ed971a3a212c7cfb11cdbc7c32d1cd8
"Gladden Farms, Pima, AZ",32.431646166,-111.201960542,2.12533299317716,43212526792f884d43028d42de483fca
"Groves Lincoln Park, Pima, AZ",32.168368906,-110.823885519,1.9874091049687,c6f592506416916ae48e49d0c9cb2d3f
"Harlan Heights, Pima, AZ",32.240032567,-110.86934984,0.360194309885975,86d35e72ab6e8f35ea5477b693b33dcb
"Harold Bell Wright Estates, Pima, AZ",32.231929735,-110.85379896,0.254675072150401,69083b73f3ba743694431ae1ac7810f7
"Hedrick Acres, Pima, AZ",32.2611203,-110.952413521,0.499892173789624,a6ce1b1e75fedb8039f90df457d4fe9e
"Highland Vista Cinco Via, Pima, AZ",32.225143929,-110.879609329,0.242177352579817,2f90056ea61fd977c9625b45fce7e4dc
"Houghton, Pima, AZ",32.2216815,-110.76427001,1.99930860812812,97c29bc4f68b87a6452cf8527481a6ee
"Jefferson Park, Pima, AZ",32.24598975,-110.951770713,0.454037732498701,2ea79787e1d8d105a384b1144b0fcd73
"Julia Keen, Pima, AZ",32.19974228,-110.918017604,0.935111052513127,98d8c1e5762216403f218124afe270a3
"Keeling, Pima, AZ",32.2568843,-110.966474085,0.640903579978382,2dd59f920a65d7f93d663d16c46b7697
"La Madera, Pima, AZ",32.2612985,-110.931046337,0.24771328836668,320e50b19a84fc4baa5bf0623cf242a5
"La Posada, Pima, AZ",31.859428411,-110.977229804,0.221602291012884,80b98cf4a3e4c8bc8f23362f3249c6da
"Lakeside Park, Pima, AZ",32.184754102,-110.815509134,0.922144050777091,92f788f26913393f96a92e6bd376313d
"Las Vistas, Pima, AZ",32.18730955,-110.931233147,1.3014066080133,60b4983d7c35ec37d58010f9cc09c832
"Limberlost, Pima, AZ",32.28289375,-110.969574721,0.502558755909251,05801a535669d0e443f4aff8a32d26ec
"Madera Highlands Villages, Pima, AZ",31.8719417,-110.960841186,1.46828216248775,78d4c00cf9ac3b29b0b8d2cf67013ae2
"Menlo Park, Pima, AZ",32.21807815,-110.995833577,2.76380832413112,7608cfc4282a008d24a63f1d6073130d
"Mesquite Ranch, Pima, AZ",32.1360475,-110.768111543,1.28198785087591,40e6e72a1b875639d8c305bf129f91d6
"Midvale Park, Pima, AZ",32.14122375,-110.99893154,3.75102236701532,5f4f0159ce7c3bada8574c827d84e287
"Miles, Pima, AZ",32.218672451,-110.948828437,0.187147742455272,2f3d0f9e1a504ca048c8c43a8a3ec562
"Millville, Pima, AZ",32.21184615,-110.956052941,0.460831004714892,a56e56b70a801e696071ccb50f92c135
"Miracle Manor, Pima, AZ",32.255357187,-110.982261572,0.371992895189913,6d176f5cd934bbc95f83700a52907486
"Miramonte, Pima, AZ",32.232294829,-110.918114996,0.5129731137079,6140e8c573b9025d3e61108dbb34cd8b
"Mitman, Pima, AZ",32.2329869,-110.871141628,0.263533882405499,053e7e8b3f829dac044579ebd33eeff6
"Mortimore, Pima, AZ",32.152667,-110.912298826,0.181659892726474,039a026486d19ba4edae7b4be8a1a36b
"Mountain First Avenue, Pima, AZ",32.25375338,-110.9567566,0.2585005591049,62d3fa076b753b7d0ccafe92b8876bc5
"Mountain View, Pima, AZ",32.2684981,-110.956648233,0.255838070892559,8bee268d00a29174e3d78e0499b6ec31
"Myers, Pima, AZ",32.19971815,-110.883700921,0.882711090547604,6dfe2ef5412f8de8ca49765ceddadaec
"Naylor, Pima, AZ",32.203408538,-110.896580622,0.255156616575231,bf5cc7f0c61c748d85c3535d94f25a67
"New Tucson, Pima, AZ",31.976244211,-110.713283624,2.33880057633762,7b0c1987ec92ee7a4d7983ba39169297
"North Dodge, Pima, AZ",32.26145975,-110.914120408,0.252836533092565,444769419a5f3f6108bb77ecf1393234
"North University, Pima, AZ",32.239619,-110.950366559,0.369330401060307,261a1d79c45f896f4998fa01846af064
"Northwest, Pima, AZ",32.2460761,-110.964191336,0.311530768322432,24c71267e0a2f3fea1a05e1c91b744c1
"Oak Flower, Pima, AZ",32.255196883,-110.905473917,0.3150604057741,9b2cb62a0c9700d897a34b9a536dd25f
"Ocotillo Oracle, Pima, AZ",32.2431934,-110.973333713,0.463353164232258,14db24a8723128b1f96e676a1dc5eff6
"Old Fort Lowell, Pima, AZ",32.264877,-110.881625179,1.03181581413972,6728082f6b98393746907c8b0cc2f471
"Old Spanish Trail, Pima, AZ",32.199481475,-110.781256437,1.00004833758733,c95dc0ffa5b5ba71f7785e4c2d1763ce
"Palo Verde, Pima, AZ",32.24332295,-110.91821309,0.982803956625451,de6c4b4836e7c805bc71c238ef79506b
"Parkway Terrace, Pima, AZ",32.205007056,-110.937420155,0.0690654398909239,977fa658592b9eedd8d095dd5776409e
"Pascua Pueblo, Pima, AZ",32.113171239,-111.075990154,1.02770663796887,5a00ef4dabcf1c690ac49d675fca3c5f
"Peter Howell, Pima, AZ",32.229128865,-110.905350941,0.496688528374031,14a8dca75764ff2e01ff5eaf1a893725
"Pie Allen, Pima, AZ",32.22410815,-110.962510667,0.349952949967957,0dcbabd240253f27ee6574799290885a
"Poets Square, Pima, AZ",32.225295782,-110.896638933,0.254739986777029,1f08db89f11ca4eaed944933f4d45c10
"Prince Tucson, Pima, AZ",32.277434142,-110.93450255,0.644974633642915,afaef846f4ab824438743b68ccd845d5
"Pueblo Gardens, Pima, AZ",32.199055,-110.937441944,0.7968574923602,59bc23f8694ed4c5e8fb12de44d95dd6
"Rancho Buena, Pima, AZ",32.156034463,-110.930599056,0.50570645447423,096c67aee5571ec51d3e6d7d188bb7e1
"Rancho Marana, Pima, AZ",32.44239902,-111.221248317,0.24634210270367,513deb303f26cbbcab335d2b68a0f256
"Rancho Sahuarita, Pima, AZ",31.971204789,-110.978336164,5.10905326037128,f4880bee3a75d0796f30b882ae39e363
"Randolph Golf Course, Pima, AZ",32.214419752,-110.913870375,0.502469687293249,f48e3bf0060314bb4b0e53d6d45e799b
"Richland Heights East, Pima, AZ",32.26844525,-110.93951344,0.256252324551281,96b0e3bffc2da435d912fd707e14338e
"Richland Heights West, Pima, AZ",32.2684382,-110.948051761,0.253909803710049,b7f718523dcda41ac6d4701ad2234c2b
"Rillito, Pima, AZ",32.27000565,-110.905501013,0.315513262835972,447bbda9b4677036df271e78923371f9
"Rincon Heights, Pima, AZ",32.224792562,-110.950076528,0.324880471413369,93d6d3ad432bd92ff51fb5eb68b822ba
"Rincon Trails, Pima, AZ",32.076122223,-110.693851198,0.585771061283014,72cefbbf22402eef73d7bc18739dad04
"Rita Ranch, Pima, AZ",32.09791885,-110.766325574,16.2817752133316,1ea79de311b99b9d2bc7977f2c35d060
"Roberts, Pima, AZ",32.194953312,-110.903533759,0.423181757141551,8f2e028a71fb6672553fa6fd06221833
"Rolling Hills Country Club Estates, Pima, AZ",32.199264,-110.802772406,1.53478868460639,7d1d0260c441fe6f82291aaed43f135e
"Rose, Pima, AZ",32.170902218,-110.981651887,0.488152186443319,437cb7dc68a0924a4eb0eeeb727a11f0
"Rosemont East, Pima, AZ",32.21803833,-110.879382457,0.255689707292451,692f857e56f385de4c9c6dd9253fda4c
"Rosemont West, Pima, AZ",32.21618685,-110.887940915,0.397545393623428,0069b6d34a7509fdf3c028975686a5d0
"Sabino Springs, Pima, AZ",32.301946772,-110.781172357,0.674333329991525,fbffc6693ca2acc5a0618b66800fd657
"Saguaro Canyon, Pima, AZ",32.166519515,-110.7642325,0.499530969826931,bb36c83861a81597cd1b44a88b703f75
"Saguaro Miraflores, Pima, AZ",32.245278886,-111.033390473,0.285580670550091,8dff1f9ede2e0721dfc71385450cf98d
"Sam Hughes, Pima, AZ",32.2289919,-110.935240639,1.01647023299281,cb42ba708fdf8a37d0c6f8bf9c5f37a9
"Samos, Pima, AZ",32.253464112,-110.948244407,0.264057294467528,3473897b4a2794f05b97b7d2acece264
"San Clemente, Pima, AZ",32.219002113,-110.905213427,0.194013427825134,c442618c88790c2651d3ad769db4ec3f
"San Gabriel, Pima, AZ",32.210872,-110.905215922,0.239483264407035,5fa273bf927e4d7d46bb5e47e1815854
"San Ignacio Yaqui, Pima, AZ",32.2464862,-110.983902465,0.351969700612208,6b12b9833716820bc6a8ee2762c38608
"Santa Cruz Southwest, Pima, AZ",32.186933928,-110.996000067,1.01001380528303,c4cc02ef63cae7475c93790078367e3d
"Santa Rita Park, Pima, AZ",32.20745385,-110.964705491,0.389492912688328,266d07d605e108e854d5ee95183de5e7
"Santiago Hills, Pima, AZ",32.2303772,-111.006174096,0.339328902971306,638dc8bd531bf1670254238922f87b69
"Sewell, Pima, AZ",32.225466001,-110.868820036,0.385611859215554,2d9bc13f65dda6e66ac31eea75fa7c53
"Silvercroft, Pima, AZ",32.24485935,-111.006407052,0.0965583243271376,7ff3727e7fd5257cc0894b3136b67231
"South Harrison, Pima, AZ",32.184860066,-110.786259005,1.71848777392402,88218f0f27c3dc4165ac7466fbf889e4
"South Park, Pima, AZ",32.192523,-110.95312651,1.64209290785687,3bad0fb6d8eddf7f2ffc3e3790d5ff1d
"South Tucson, Pima, AZ",32.1948125,-110.969434951,1.0429150404602,79f9dd0abdf6c48404de24b6788883c7
"St. Cyrils, Pima, AZ",32.2438161,-110.888388902,0.499174218680478,7e8b7294e34dbc81f977aa23945f98cf
"Star Valley, Pima, AZ",32.115189718,-111.106005911,2.26367821103401,8e46e8975f1d8c8396a59d068b4b14b8
"Starr Pass, Pima, AZ",32.208629717,-111.037440577,3.03235057598133,df86167083c3b710d83a12b8a75cd2bb
"Stella Mann, Pima, AZ",32.184051344,-110.84728362,0.659677043271655,8dc903f87c0d33b080a42e35d8fdfbd0
"Sun City Vistoso, Pima, AZ",32.462639888,-110.947166445,1.5420860292182,0aae5b4b0931e354cc475b3529e863cc
"Sunnyside, Pima, AZ",32.149130599,-110.973943757,2.74743081545478,851b335f07e14826475ee1b6284ed570
"Sunset Villa, Pima, AZ",32.1831391,-110.981422139,0.351176521519235,5c75bb9ec3705a60da40a329302c1d54
"Swan Way Park, Pima, AZ",32.232576646,-110.888233085,0.253868683266389,48218641709f50d1897e562f8bd9d65e
"Sycamore Park, Pima, AZ",32.085514875,-110.830569852,0.353307483284518,16be8eb67b202bdbde678b6fa6ad4609
"Terra Del Sol, Pima, AZ",32.1992964,-110.849476967,1.01115259198175,a538948f83099d44f1f875e1515df95a
"The Highlands at Dove Mountain, Pima, AZ",32.449555789,-111.073990847,0.818776576570745,ea3b1cd550212336df81b441061c6525
"Thunderbird Heights, Pima, AZ",32.2329537,-110.862372834,0.255318516299266,e19f99ae8d58e46fc0afa690e8d021de
"Toumey Park, Pima, AZ",32.2111023,-110.896572702,0.273669548155325,29aca4886dd36ad0409246fa3500a968
"Udall Park, Pima, AZ",32.247015672,-110.839322782,0.413367177081907,18ee890427d31b5ea3c4b6a58b5e4065
"University of Arizona, Pima, AZ",32.232095941,-110.950315318,0.431960865727935,df3d188c94da8708ca4a18dae778dd82
"Vista Del Monte, Pima, AZ",32.256837925,-110.896871229,0.386139296921335,dde7edcdabbeb7bfbfb7ad03aba14493
"Wakefield, Pima, AZ",32.178904662,-110.972911249,0.629307282957454,29dd2a754fe949d13411c3c66cd2e143
"West University, Pima, AZ",32.2323553,-110.964256094,0.49856742720753,dab546e5d92b078b325d5ade491a3778
"Westside Development, Pima, AZ",32.19245318,-111.020338424,2.37986787484609,acb793354ad8604985ec6688f857567b
"Wilshire Heights, Pima, AZ",32.21468858,-110.870565222,0.155808730940015,34ada9c0ade98d0603c1d1dacd569c22
"Winter Haven, Pima, AZ",32.268596648,-110.931005283,0.251454451381883,7f8837fd154940baccfea28f06014ee2
"Cordes Lakes, Yavapai, AZ",34.308813636,-112.1053444,2.07258693002303,26ec2c949006d712363dfe67b9188a56
"Forest Trails, Yavapai, AZ",34.557783368,-112.508278608,0.70523056531403,3a04fd62b7dac5abd33a2ab393140fa8
"Prescott Golf & Country Club, Yavapai, AZ",34.558119372,-112.273468914,1.50260969944092,545dacdf9453a88fff3f90de33d377a6
"Prescott Lakes, Yavapai, AZ",34.587486691,-112.437824461,1.76135588641806,fe48e990f52308303b863e438ccfa580
"The Ranch at Prescott, Yavapai, AZ",34.537587159,-112.41936833,0.983531057133819,a8b2a7732814024adccafd53da8cb14e
"Verde Santa Fe, Yavapai, AZ",34.724653498,-111.965457286,0.770343760153691,b9e8f5f6755b324c755a27e2627fc66d
"Yavapai Hills, Yavapai, AZ",34.560090174,-112.395317881,1.61377523989541,4b9acd2bb949e188c93a52f5e5f02295
"Dawn Hill Country Club, Benton, AR",36.229635546,-94.51698799,0.567315019495118,25304d5927132c2250756899faf697c6
"John Brown University, Benton, AR",36.191553779,-94.559815452,0.288942006676893,666bbf65025de59dc1404517a57914ce
"Legacy Village, Benton, AR",36.379484583,-94.193339796,0.0802271012297433,56cf2179d35265d8bfb1ddf822a94fb1
"Legendary, Benton, AR",36.223026055,-94.211626085,0.228319927051047,7f1757e8fe53bb29a524773859441123
"Shadow Valley, Benton, AR",36.287276418,-94.214399705,0.568871396467336,ab1a615c7e0240bd0ecc6c96624d6a41
"The Pinnacle, Benton, AR",36.299309803,-94.198146158,0.879193076977298,0ef5698bce67c39b92145b5305a5df71
"Wellington, Benton, AR",36.252225462,-94.225765593,0.18684894427321,24622039061c5fcdab95ee77be7f945f
"Wood Creek, Benton, AR",36.376465931,-94.159801751,0.394841893525424,251728f4a8eaab23e6e22a72c3d62e16
"Coronado, Garland, AR",34.651508822,-92.961862597,4.71238375577804,6a9920a5ff27bea225806da7ec278ade
"Cortez Highlands, Garland, AR",34.686930801,-92.983937607,3.61976116359025,6ec1908b61bace8cc0e9998001e087a5
"East Village, Garland, AR",34.642027585,-92.871646069,10.121263962671,767cfd34372b376502b7e141f05c6989
"Glazy Peau, Garland, AR",34.636685125,-92.993084403,2.20455969299667,46f44ac6b31708ff6b2ae6df096527f7
"SoBo, Garland, AR",34.632912125,-92.931818917,2.81058813648807,9fb936fa8565aa3d1a9c3286fbe97743
"The Foothills, Garland, AR",34.658701897,-92.996710037,2.88352451570957,1d24ea3462b9b3384b80a9f74d8d892c
"West Village, Garland, AR",34.672475002,-93.018783455,7.43004199052009,13e611f4a6e8ce5e414064957bfe5be7
"Meeman-Shelby Forest State Park, Mississippi, AR",35.335424236,-90.051888959,18.6362435922816,0880a7645efc95ba222dc4c418129a5e
"Alexander Road, Pulaski, AR",34.637980886,-92.428827927,1.85598010075436,47b78b18365a1294eb724cb7f6c114d4
"Allendale, Pulaski, AR",34.6629275,-92.349166937,0.145390384543151,106b2c51c58c72527f78e8165a9eb8a0
"Birchwood, Pulaski, AR",34.750507,-92.400516998,0.313856669067946,edbf821a841f45e4f66075f47774bc93
"Briarwood, Pulaski, AR",34.749127943,-92.352240206,0.703604000157839,14d2f36393a8b99be8c64dd983ee6b9a
"Broadmoor, Pulaski, AR",34.730198719,-92.346311048,0.300907071028332,aca71aee415e4508a223840e657f7a99
"Capitol Lakes Estates, Pulaski, AR",34.739454633,-92.442501902,0.30111565813475,c6a976f78e72b0ad4f18c3fbb9817ffa
"Capitol View, Pulaski, AR",34.7490386,-92.305090665,0.827764467282661,1c5b45976bc60726e5aadd080af919f0
"Chenal Valley, Pulaski, AR",34.781831636,-92.468900238,11.5159009812014,cd1b0a8cde9c7b62738f07f846b747c4
"Chicot, Pulaski, AR",34.662341305,-92.358331732,0.388268290132334,423bdcc03fa00484edda8872597fc3ab
"Cloverdale, Pulaski, AR",34.67420455,-92.351837214,0.559519051056665,70275a9fb857b726062a0cc2fa34bdd8
"College Station, Pulaski, AR",34.709643,-92.227751758,0.840437358328616,21e28fb7059904c8c01eed2df2c8e9ab
"Downtown Little Rock, Pulaski, AR",34.739755563,-92.275768414,2.82866904312119,e681f17ab3c33c664cbe2a2befe5217d
"East Little Rock, Pulaski, AR",34.7395705,-92.233659547,1.18494936271426,97bb70f389ea9ef85fc16227481e4036
"Evergreen, Pulaski, AR",34.762846368,-92.344278705,0.12113350045983,50d83c5f65c4308c9782207102159578
"Fair Park, Pulaski, AR",34.72982745,-92.335066798,1.09976524145831,ea2ae24c807740ab9145b3314298726c
"Forest Hills, Pulaski, AR",34.74249245,-92.32311128,0.196775023848997,0c5272425d6fcc202c358f3ecc51aa32
"Four Corners, Pulaski, AR",34.715946403,-92.342649472,0.255253384984768,e26a39d16c931f70792a184e6c3c001c
"Gap Creek, Pulaski, AR",34.851973279,-92.186225383,0.190926751462237,32f8e6d33451539562e0a2ab346c1d33
"Granite Mountain, Pulaski, AR",34.706492938,-92.253301238,0.424766549030302,883692c6177a26c042c7a95957dc8d24
"Hall High, Pulaski, AR",34.75752247,-92.349824968,0.647752612675904,25825b8e2c21068121d9960ac20e15b9
"Heights, Pulaski, AR",34.774782082,-92.330880644,1.56667400753087,f230e38d2a7415ad557c00e4809fe1ed
"Hillcrest, Pulaski, AR",34.758308046,-92.322459839,1.53950615416315,ac31b8fbf807ae818cc19ae984d21146
"Hope, Pulaski, AR",34.7370815,-92.324645125,0.29596765079929,117ad471965fb7daf2ce467a0fa0eb61
"John Barrow, Pulaski, AR",34.725870768,-92.384307024,5.85598802098117,43bd29a71583a7383d9555cbc157f93b
"Kaylin Hills, Pulaski, AR",34.754925339,-92.366040564,0.0847129829271676,8d56dad24dc5452c37f195a73019eb65
"Kingwood, Pulaski, AR",34.779930051,-92.353521435,1.07771030676374,06fdd0c925e706554c32b648010a3dd5
"Leander, Pulaski, AR",34.737783479,-92.355821354,0.163623602894903,1517652d6c83c6648dcd5404d6389054
"Leawood, Pulaski, AR",34.765807146,-92.365652833,0.793278733383044,33df8bd244bc7d7f3c4a44fc9dca9aae
"Legion Hut, Pulaski, AR",34.649664271,-92.366703125,0.298105482306389,487ed4d0fcb162d7068e7dabc7202bd2
"Love, Pulaski, AR",34.72924795,-92.314643254,0.270860147594044,1b6be9b936ae8d3f042c01586eae484f
"Meriwether, Pulaski, AR",34.767271903,-92.353926387,0.249447377284229,25c3cd0da499fdde33efe2958aeda8ce
"Midtown, Pulaski, AR",34.72804935,-92.323957637,0.335601997687355,9bbe2933eb002843d93b9eb6ae48938a
"Mount Zion / Hardscramble, Pulaski, AR",34.672907633,-92.446917334,2.17146498530154,01e40f9d157972f27675db68f1f9d8a0
"Normandy, Pulaski, AR",34.766083952,-92.344697374,0.101583700850987,6165510ecfdfa395fb708296800861a7
"North Broadmoor, Pulaski, AR",34.738246294,-92.343251921,0.0792881196472731,584f8ea50ba6888521115accc96471ca
"OUR, Pulaski, AR",34.662091275,-92.338684482,0.638020074606104,497adc598a271dc7be1f60016dcade57
"Otter Creek, Pulaski, AR",34.663941021,-92.434960615,0.877261613699048,b738584885a3d4522dda71ecebca0ef0
"Pankey, Pulaski, AR",34.801045972,-92.423418693,0.218275165408671,af0a5dc86da07c0b0cfa0563f441ce8b
"Penbrook, Pulaski, AR",34.749321063,-92.37586,0.131278693059665,df11b8c381521a677ee9a1d34f72367b
"Pine to Woodrow, Pulaski, AR",34.74213895,-92.311191877,0.174801348773207,bb92770f57b8fe2701c34a364c03b681
"Pinnacle Valley, Pulaski, AR",34.807309189,-92.443145318,0.570950040501613,61156c7002236545c07d0917d55376d6
"Pleasant Valley, Pulaski, AR",34.779837213,-92.410227216,1.47656960397943,ab158b3a951c80a2eacb336b619635e5
"Point O' Woods, Pulaski, AR",34.733789372,-92.343986049,0.0910908406987534,d6633d063fed2f5c03ff97ccf24101d2
"River Ridge, Pulaski, AR",34.791226964,-92.377803003,0.622918986006143,d8c498784dd9f145add00d174b6e4615
"Santa Monica, Pulaski, AR",34.658349483,-92.34947188,0.242362181021944,c350639c20c8b19f1d419558e6fef22f
"Secluded Hills, Pulaski, AR",34.798924974,-92.433082501,0.189721206473398,052bdbffaf30ebd8eeaa154ed0f0abfd
"South Brookwood, Pulaski, AR",34.6877045,-92.356342204,0.257393051567266,41c56e03c2c1128c8354274d879dfeda
"South of Asher, Pulaski, AR",34.71864765,-92.333596012,0.0747288640937732,903918e512cd621e9f4bfd918e436f77
"Stagecoach / Dodd, Pulaski, AR",34.690064,-92.381751797,1.14131844153711,c1bb80ae04e6c1b09573c34e9a02e072
"Stephens Area Faith, Pulaski, AR",34.7367454,-92.312533392,0.37889141516742,8757de3fdd03304f6176fd349ebfbd07
"Sturbridge, Pulaski, AR",34.769055345,-92.38034539,0.378247727681518,740d6a8dd5c6d94be93b85f0fad29cb1
"The Country Club of Arkansas, Pulaski, AR",34.845725633,-92.395069376,0.955148039657573,df7d0919f429e57dab239bb0185f7f2a
"The Villages of Wellington, Pulaski, AR",34.765885333,-92.441647351,0.478915208780661,aa615a92dafb480c9f6e1465db201b75
"Town and Country, Pulaski, AR",34.676397138,-92.369618083,0.306665028952447,134265027423856343896a5ac54b630d
"University Park, Pulaski, AR",34.743503477,-92.345840427,0.13597107712326,42e5008a4773ad0fe61fd2df4c9ec7d0
"University West, Pulaski, AR",34.723338724,-92.350209459,0.447377728389663,28a8bee8ee199188e5ba4e42f07a8904
"Upper Baseline, Pulaski, AR",34.681255975,-92.317020174,3.7786592974536,56f3d974cf4b1e6c3d13dedad73fc3d1
"Wakefield, Pulaski, AR",34.68955255,-92.336395381,1.55022525054668,ebd3cefd904fe7c632f8fa1171ae3ebb
"War Memorial, Pulaski, AR",34.743049768,-92.332229137,0.0651423938434948,404d04c5aa8aa25a432cc399f2d11585
"West Baseline, Pulaski, AR",34.6626507,-92.367282253,0.629685836143248,068c99d92cd2148b8f83d649bd406e1a
"West Pulaski County, Pulaski, AR",34.799081231,-92.581957096,75.0044796386446,5483e3a293188a1475ff2e87e71b7d12
"West Village, Pulaski, AR",34.765031817,-92.391994356,1.22819615540042,8856534d33dd1a00eb0f626a6f75bf4e
"Westwood, Pulaski, AR",34.708292,-92.363681643,1.65174089702836,de83c939b11530b2ac34aa4179383b10
"Windamere, Pulaski, AR",34.672508369,-92.339144339,0.255320399821275,14e4a940f80f1b9da0e695036cce1485
"Woodlands Edge, Pulaski, AR",34.733970062,-92.426836441,0.955884957496571,385369675997bf9e7413e6ed8c7720b9
"Yorkwood, Pulaski, AR",34.651891769,-92.356741941,0.193870167258761,f53d51b91a9b0fbf5fdcb70acaffd1e1
"Campus Corridor, Washington, AR",36.081945711,-94.182818805,6.17018102454287,57ee05bb873ba550a112b1b439e8fb40
"Downtown, Washington, AR",36.066281522,-94.158273899,1.31436949870637,fc20bc390918d4bd2712a10a96bf873e
"East Fayetteville, Washington, AR",36.0728866,-94.130354455,13.245837054486,9cfd5b3df045290047037da7b1dd3737
"Lake Wilson, Washington, AR",35.995468,-94.131031603,0.50052643708579,eff2a28e05ce65a66059a3725cd37b08
"Midtown, Washington, AR",36.098492,-94.148038898,3.81233746350998,518a0325ced19d1dd3d3c9f196767a5d
"South Fayetteville, Washington, AR",36.0260675,-94.165782547,13.8967254950877,b25106c90b966dbc6961fd88ca653768
"Uptown, Washington, AR",36.1270065,-94.135717788,5.02287684658671,b9c7f47271df554bf0782740600ebbf0
"West Fayetteville, Washington, AR",36.083945201,-94.215545585,13.1448850983151,0ef7d6330a3c3fbda566ebddffd1bf5b
"28 Palms, Alameda, CA",37.529244888,-121.992889766,0.501957499072259,fa91a0e000cdf5c17aafe4163948c137
"Acorn, Alameda, CA",37.804605998,-122.286410169,0.306428572048714,9fda4fdfea6073e45a9b45884b8a4c39
"Adams Point, Alameda, CA",37.813053131,-122.256056515,0.324880335784093,3ddb4d74f142710e0050be0dbc6517f2
"Alameda Golf Course, Alameda, CA",37.738266754,-122.232203685,0.56386440927264,55059b304fd0428cee93a7778096e1ca
"Alameda Point, Alameda, CA",37.7839824,-122.310524553,2.31360338708021,790f8f9ec6653fb01a62b063e3c9be67
"Allendale, Alameda, CA",37.787387848,-122.203532419,0.247789745879048,54c72365d0b2b3685a11996dd7bd8500
"Amber Ridge, Alameda, CA",37.694694812,-121.751925688,0.0793385197902307,ddf5fc48a2d0985ad591b032afe4b3e4
"Ardenwood, Alameda, CA",37.567651563,-122.054423938,1.88227741681771,c1fb14e392e263946b37ec0a36b2b40d
"Arroyo Viejo, Alameda, CA",37.760753632,-122.177960157,0.314734199699449,381cb14bab7bf190ec25ebb3ebcf3c75
"Ashland, Alameda, CA",37.696781705,-122.117724846,1.9435060710863,25e9528b8a646db1b1efb2fb60ea3cf5
"Autumn Valley, Alameda, CA",37.69161425,-121.740802371,0.0827151860650215,063511f4dcd270ddfb5573d59e6b6568
"Avondale, Alameda, CA",37.69264212,-121.72349657,0.0434753121121555,f416398a984e487a1fd4badd22f12f79
"Ballena Bay, Alameda, CA",37.766600342,-122.286320274,0.132293180728889,dd457d38dbfd8918706c69cabf36c53a
"Bartlett, Alameda, CA",37.792374517,-122.208991414,0.183124818017427,3ce89b61ee7882145862c4f02ffb3405
"Bay Farm Island, Alameda, CA",37.7293093,-122.239389109,1.04839938713979,983a789d118c986ec2ba66cc777ac425
"Bay-O-Vista, Alameda, CA",37.724750228,-122.131410787,0.695854248465749,413203eeb169e731df92d0099bc1dc33
"Baylands, Alameda, CA",37.488355637,-121.962143017,7.82255021233868,8ce476f79b7657a9a67873a15bcd652d
"Bell Monte, Alameda, CA",37.733025914,-121.862447004,0.0779741003515837,7f74e0d3d23e4e894f7f039a112bac52
"Belle Vista, Alameda, CA",37.79929924,-122.238230631,0.0828135821627925,0bcb466e546e17f5da25a974c9906320
"Bent Creek, Alameda, CA",37.7385896,-121.915572388,0.309411760530126,e245cd895285ed6966d4bef7e2ff8865
"Berkeley Hills, Alameda, CA",37.889623508,-122.261135578,2.0106523285843,eb4e82c6fc69c1cc41d690433cf68a44
"Berkeley Marina, Alameda, CA",37.867416442,-122.308356691,0.399740905808266,d9344a3e0e5688e7843292922d5e118d
"Berkeley Oceanview, Alameda, CA",37.864307338,-122.295944637,1.26682187291699,704af8e0cb22bd66f79c828378bebecd
"Blacow, Alameda, CA",37.518583298,-121.974615352,0.783137934677094,0d0e2d15721106468c942b4ffe144d51
"Bollinger Canyon, Alameda, CA",37.795398982,-122.020127109,6.00451829917278,ac5811d6b8cc520e1416e9027cb69beb
"Bonaire, Alameda, CA",37.69761946,-122.161007415,0.225475431230171,fa58aedb0184fc328baee6d5cda7fa38
"Bonde Ranch, Alameda, CA",37.650434475,-121.865706367,0.162196075617661,4f9111469b3ac4589d5452666be0d365
"Bordeaux Estates, Alameda, CA",37.710259874,-121.951174972,0.0773919200232106,e001bc6cd676c953959a859e92e69f2b
"Briar Hills, Alameda, CA",37.701650331,-121.946266134,0.17471184539728,5ba83911a246f869cf1989b5388e9442
"Bridle Creek / Sycamore Heights, Alameda, CA",37.643520605,-121.871402299,0.137338872408177,4b6f5ffce3a14fabec52c2c6fd6d19cc
"Bronze Coast, Alameda, CA",37.765355335,-122.254243064,0.371266519098783,f5005410b3ef461602fbca6be705119f
"Brookfield Village, Alameda, CA",37.733584982,-122.184373918,0.325296703150172,33d05b8e6cc626b86310aff4c5f40771
"Brookmeadow, Alameda, CA",37.690696957,-121.736103687,0.120501892153983,c9e3b9eba361a8066fc465b3a93456fc
"Brookvale, Alameda, CA",37.571956635,-122.011798838,1.85796041546949,c5b0e8b59bdc2d2afc6dc39413bfc172
"Burbank, Alameda, CA",37.665387602,-122.092443343,0.574130228889711,94b9e60cfaf81241927c055a15f55fec
"Bushrod, Alameda, CA",37.845102311,-122.265948922,0.457955624983697,7f307a6008036667219eb7c45447ff15
"Caballo Hills, Alameda, CA",37.785313305,-122.159286142,1.11007468712844,cdddad0c34a969df72242f038511950b
"Cabrillo, Alameda, CA",37.559020312,-122.023431459,1.14792772638702,60229ea6f841c09b378daaafe443853d
"California Creekside, Alameda, CA",37.706952386,-121.88199318,0.0376982695130751,c70745cffc7fdb8bcf238ecb57639ee1
"Callippe Preserve Area, Alameda, CA",37.63053932,-121.865477116,0.309668435512744,d44fbe88d8696beee2cdfca6c45755d3
"Cameron Hills, Alameda, CA",37.519089371,-121.936610865,1.86742297786553,68562823cd9206d315e0bd5eef00a694
"Canyon Creek, Alameda, CA",37.716089758,-121.945983616,0.0224713057692766,03d149feace725ebc2a2e313511bfdc9
"Canyon Heights, Alameda, CA",37.576762866,-121.965507132,0.603877729691688,ffaf59ac4320b8578e97eaa6a9b656ec
"Carlton Square, Alameda, CA",37.67303604,-121.797397047,0.11145765376083,91fc7c7e3c77a391798bb9f693863d4f
"Carriage Gardens / Castlewood Heights, Alameda, CA",37.63928635,-121.879246877,0.117432356019675,e59d7b97624228c0c23abfa28f7f22c0
"Castlemont, Alameda, CA",37.754846573,-122.163788179,0.277158778368936,5f0a3ad1a1d5059f539b6ca731a0c4e8
"Castlewood, Alameda, CA",37.632771957,-121.897567449,0.515461333331699,5d312b2b3423c9f4c592752580df439f
"Castro Valley, Alameda, CA",37.702165134,-122.06650533,12.9483390687949,68c12558a797c3cdfd8a2dccfb8b122c
"Centerville, Alameda, CA",37.551981894,-122.012990636,1.41014875776733,79cfc2cbfad12ed29fe5cae58002decd
"Central / Downtown, Alameda, CA",37.548398626,-121.972384496,1.75576799846623,02820b7dc2c759a0f628810b20cf5b0c
"Central Alameda, Alameda, CA",37.772735325,-122.251735228,1.09307485601452,61e35195a924b99e6b747ced1ddd6844
"Central Berkeley, Alameda, CA",37.866820133,-122.276992773,0.280985175554893,03ae9ee9692d90cbc66e3fbc5f7f072e
"Chabot Park, Alameda, CA",37.746148681,-122.134611225,1.3297428409867,892b24e16e984ec467753b816b72153b
"Cherry / Guardino, Alameda, CA",37.564273835,-121.969836676,0.743328142888751,5c25ed73074396c086c332d55965e77b
"Cherryland, Alameda, CA",37.677235701,-122.105406119,0.863659840430066,1a2f69c5e258c676c551af9dd5106790
"Chinatown, Alameda, CA",37.799026207,-122.269311994,0.177187542407124,baf4ec844009f1d6f3cbafc8801f4b05
"City Center, Alameda, CA",37.803871155,-122.274033992,0.0543417128789679,d449e24774dd1bf0666943952a58ab35
"Civic Center, Alameda, CA",37.7995224,-122.262701231,0.0815200854193701,4524608837caee8de45b8815f6a73455
"Claremont, Alameda, CA",37.856947449,-122.24265199,0.512131306269758,75aada0b257f0edf83f53be34e9fe41e
"Claremont Hills, Alameda, CA",37.861604552,-122.228281949,1.18658132566709,d6a5db63bbef2c6fe9369c37c4eabb54
"Clawson, Alameda, CA",37.822081179,-122.288812716,0.349228803092108,c5d11c94274897c2c048a3d473db9347
"Cleveland Heights, Alameda, CA",37.805059433,-122.242872318,0.426498543895664,ed11de38c76c429ed26537e009bc7c14
"Clinton, Alameda, CA",37.795057297,-122.244515062,0.30091511511516,cf5bf9e3692825e56fee81aa3c8c628b
"Coast Guard Island, Alameda, CA",37.782211575,-122.249531546,0.100900238806359,7c412e801605c512119b84f3748f9ea5
"Coliseum, Alameda, CA",37.757305146,-122.194277597,0.252837669092374,2469d07b21a5e211ab268596d2976b3b
"Coliseum Industrial, Alameda, CA",37.752042565,-122.200841522,1.66307503322327,4105148e1939a0639ceb5a8630ce944a
"Columbia Gardens, Alameda, CA",37.73103614,-122.19047234,0.139097695572998,8b1c229636acf252605ee3e8d0e33e1d
"Coventry, Alameda, CA",37.686120559,-121.721634814,0.173931974046614,d308b144cd39ced604ed25cfe7dc6b6a
"Cox, Alameda, CA",37.748095375,-122.167329761,0.254545725937593,205eac6caabfb62f1f0e8786a81fdde9
"Crestmont, Alameda, CA",37.799943245,-122.176466352,0.296525210150116,d91ec293c6e8261c916097a7f10b93f7
"Crocker Highlands, Alameda, CA",37.812269211,-122.228701653,0.336295716042199,2d9bcb290c86ecde80798c5fb67b4abc
"Davis West, Alameda, CA",37.722101541,-122.182489139,0.0900628461743309,738d0df7b3791e462cab83aa0c56e6ec
"Dimond, Alameda, CA",37.797595978,-122.209978469,0.147022902247652,0f169333a33b0ddaf64fb2ba405b3984
"Downtown Berkeley, Alameda, CA",37.867991694,-122.269313303,0.210973319500834,17e18bb5af6c30585c98096ae7d7ee0b
"Downtown Hayward, Alameda, CA",37.672296524,-122.083462659,0.292465188738141,58a2bf786830348bee4b3d3e01310a5f
"Downtown Livermore, Alameda, CA",37.679096518,-121.782193933,0.274777528492341,c8ae026a8ea1342566863028d4da4209
"Downtown Oakland, Alameda, CA",37.802935296,-122.269842803,0.0231165242000773,1c8f7b58103ee0ec47a950a7051ec41b
"Downtown Pleasanton, Alameda, CA",37.661842056,-121.872181335,0.387966833444749,9363c88d9cbc881db6237cb6c204e8b0
"Downtown San Leandro, Alameda, CA",37.719556809,-122.15383972,0.945745471151368,3f6f2ca8cb49ce19095ed96bf0315e82
"Dublin Green, Alameda, CA",37.710715681,-121.940078278,0.0198850352790787,93702e10c3eb7ee1fb758baa5c3d95ae
"Dublin Greene, Alameda, CA",37.70759475,-121.876765762,0.051899083061525,9168cef84910a8df06cec5b9e23b3a65
"Dublin Hills Estates, Alameda, CA",37.721194898,-121.918735856,0.0708165939495899,a4b242f55e5c2d75db686614b2dc16d4
"Dublin Ranch, Alameda, CA",37.717092658,-121.861476835,1.51689769670064,64a8a493d2dbe05d7b5f49c9a9e3b16c
"Dunsmuir, Alameda, CA",37.674637872,-121.728036168,0.172754191232719,9018ebdcc49542c2b254bfaf6cb241d6
"Durant Manor, Alameda, CA",37.738972182,-122.160991654,0.143003565290952,1ab7d1ebbb3cad4f5567e909243bb31c
"East End, Alameda, CA",37.7579512,-122.240342419,0.722212240147809,09dabb134a75701248d3ddb31faad8f6
"East Industrial, Alameda, CA",37.484275818,-121.931852439,3.49659154964381,6d998b7bb44b46682c9321c6719e6ada
"East Peralta, Alameda, CA",37.792284012,-122.253491571,0.25860582783485,9bfc7f06a80c6341baac335323b751db
"East Shore, Alameda, CA",37.75400345,-122.227313842,0.0300277092221275,994cf759656cd901257efd50866a4f77
"Eastmont, Alameda, CA",37.764520646,-122.170848609,0.207739927065072,6d89e0eaedadcbda0f658cdc02d648ad
"Eastmont Hills, Alameda, CA",37.769653321,-122.162733012,0.501050466713538,a53b60785962821865beee69cd998a36
"Eastshore-Davis Street, Alameda, CA",37.719139434,-122.167829597,0.952923026982383,16d905157ee46060ce349f239191a6f3
"Echo Park, Alameda, CA",37.71101285,-121.920066074,0.245351679908584,a33d1c6c3b607edd277e85c92b4cd85d
"Elmhurst Park, Alameda, CA",37.742980957,-122.179435203,0.287612627249736,9356c5b0561b74f43e8bee7512c98f0c
"Elmwood, Alameda, CA",37.858324051,-122.253831592,0.377509542456601,9c16d103ec6122dcd3d6b7e7f3b25a14
"Embarcadero, Alameda, CA",37.785081342,-122.244402885,0.212621249156977,02339d6cea39cd32e8e2bc0bdf41c334
"Emerald Park, Alameda, CA",37.7112909,-121.882893484,0.106890628760676,d96af88bb52e6d4fb131cd6ec07ed559
"Emerald Vista, Alameda, CA",37.715013119,-121.911280239,0.0405540308171055,550aef428c1824dcf08f3344e6676fea
"Estate Collection, Alameda, CA",37.696821405,-121.746922763,0.0734026730734235,09c72c8211f73611fa716fc2dffd506c
"Esudillo Estates, Alameda, CA",37.730267252,-122.145906712,0.341338298144431,cc971c20652a64415adbcbd981a1588b
"Fairfax, Alameda, CA",37.779712972,-122.19642995,0.62543560827946,06633b753c6c2842ce2ee5c0508cb629
"Fairlands, Alameda, CA",37.695380307,-121.871136986,0.324494625907673,24ce0f2f2dcf56ebab1736cf70f341eb
"Fairview, Alameda, CA",37.675714145,-122.054773534,3.01423802447226,e2ab58c11c0063f1a54efa3dace0820f
"Fairview Park, Alameda, CA",37.846682798,-122.257746278,0.212200633078869,45cb4e1d2b5b48882f0dbff2099cb0ef
"Fairway Park, Alameda, CA",37.617959614,-122.035652348,1.15696329329064,55bab6e73139e1727f35b60daa03dfc3
"Fallon Crossing, Alameda, CA",37.735280153,-121.865428759,0.0310620511236984,bf69354e1bc33b5c07558a6420f6d6df
"Fernside, Alameda, CA",37.761789013,-122.231176262,0.369643383036861,139c5490eab7b7bc317205c66093078d
"Fitchburg, Alameda, CA",37.754463196,-122.188047914,0.23116502355675,2efeb2d06b8f459d6828c0244f4aeb8b
"Floresta Gardens, Alameda, CA",37.695085603,-122.13871037,0.717973125246836,f86d91df89ceaa5133ce5b9596d1caf7
"Foothill Estates, Alameda, CA",37.719972803,-121.948976627,0.147703343797148,63cf61c35d5199540a6c8e533dc0ca4e
"Foothill Farms / Muirwood Meadows, Alameda, CA",37.670209112,-121.91513659,0.0583726057891,b50bc93adb5418764bb1803f0392c8f9
"Foothill Knolls, Alameda, CA",37.665658978,-121.913741062,0.0738900422168629,4a74369c40927bee86937cdf88d417f4
"Foothill Square, Alameda, CA",37.744882584,-122.151562977,0.153018253069737,5cf3d353d314747c5f1269d6ab706aee
"Forestland, Alameda, CA",37.842836451,-122.199505287,0.571259427991477,2cecf496da34002b1f102c62612d8243
"Fremont, Alameda, CA",37.774353028,-122.209288682,0.28068054497835,afb0c934fab9f03fc31ff81cca0ead14
"Frick, Alameda, CA",37.773871178,-122.186846153,0.292838604840467,3e732315c1460507e5369dc5b05c9d19
"Fruitvale Station, Alameda, CA",37.773679733,-122.222661114,0.167388274539648,7dc6e20c6b488c62d61c7b360e21c639
"Gaskill, Alameda, CA",37.84047699,-122.279735844,0.115924586428702,403334264d30279a694c97d79c6ca4ef
"Glen Eden, Alameda, CA",37.626513028,-122.093460149,1.42433287113482,69ba3ddb84cc5a2317aba1ca97b8930d
"Glen Highlands, Alameda, CA",37.840426765,-122.219179213,0.495064426675674,4fd550d56bdea87c1ef6d33b0bef4369
"Glenmoor, Alameda, CA",37.543132782,-122.003776193,1.48898987045452,bef23a92358a4f006055231539d44c08
"Glenview, Alameda, CA",37.806349067,-122.220299109,0.484343660869728,6384d8657065e6562a73f34b412253bd
"Gold Coast, Alameda, CA",37.76719045,-122.26652736,0.309613456305767,97e12da02db704f0207eb3abe1eabb65
"Golden Eagle, Alameda, CA",37.641148805,-121.902670309,0.514851205384556,12d0eb77de8500c2c1fbc45fa4785b8e
"Golden Gate, Alameda, CA",37.84333992,-122.286226248,0.214629333696368,5dd44ab405f6b30931ec94b6f1b7bd85
"Granada Park, Alameda, CA",37.674168811,-121.787969484,0.241197945084965,df0e4e130be0f15032740a13e5e1faae
"Grand Lake, Alameda, CA",37.816810608,-122.248669902,0.272667262095858,3e825421f3b907c33b3aae4a445ca1e2
"Grimmer, Alameda, CA",37.517389297,-121.957595767,0.92124366088343,30bbcecf381b645824be24a75289ff65
"Halcyon / Foothill, Alameda, CA",37.708486557,-122.135503888,1.42249532882807,3cfcb73d0d96db1c7b5512257299d83f
"Hansen Hills / The Ridge, Alameda, CA",37.7059597,-121.955938266,0.159929500653774,7156b686b6b7fc78d2269aae6c79a811
"Happy Valley Area, Alameda, CA",37.637656412,-121.870801895,0.622236563595095,5e13de3f0ed0b15ae8b39a1f30285bc5
"Harbor Bay Isle, Alameda, CA",37.74181035,-122.24930724,0.886141205883917,f0395f92a13e8e388fd19ed4bfbf3f7f
"Harder-Tennyson, Alameda, CA",37.640777588,-122.080903018,1.24211067563336,70a074c722f1b9651a2c994127174b08
"Harrington, Alameda, CA",37.783470154,-122.214062038,0.169005782713715,ded2426a1b171dc7982a879d016e9c8a
"Harrison St. / Oakland Ave., Alameda, CA",37.818328076,-122.258552515,0.218634084235045,38fe47c1cb2181715e9af31626ddcb8d
"Havenscourt, Alameda, CA",37.766569138,-122.186862478,0.353689898993675,410a535443e8c7cd2a212c1b8b45bc25
"Hawthorne, Alameda, CA",37.780052185,-122.22894926,0.198359170758509,99ad9cb229b91db1913baa103db4953a
"Hayward Highland, Alameda, CA",37.653476367,-122.033277243,2.33827611756135,1966f37a4c732d81a5727121e751e5b7
"Hayward North, Alameda, CA",37.681046527,-122.086971045,0.782714852149146,1f31946e57d7742ae1ae4c3a25f21eb0
"Hegenberger, Alameda, CA",37.764131546,-122.183263162,0.199440268035117,70c5b3ee85fef6dbc657dd35ce8ae0c0
"Hegenberger Near Airport, Alameda, CA",37.73472773,-122.202486172,1.55652483896267,5bbe6cc7dc5bcd3c00c03326ea613ef9
"Heron Bay Marina Vista, Alameda, CA",37.687971115,-122.163802357,0.0662968925470157,ccadad02f6bfd8e2700b9efd5a486115
"Heron Bay Marina Vista South, Alameda, CA",37.677375259,-122.159760084,0.129244437739647,b7d95dc5a3190e7cfb8eef58a8b24075
"Highland, Alameda, CA",37.748357773,-122.180423503,0.281927640046969,bbea3549b265da08b6ed0a6ef0a36acf
"Highland Oaks, Alameda, CA",37.678887758,-121.918375354,0.164958475663271,c918cda27ab31b083bc9ea032510d8c0
"Highland Park, Alameda, CA",37.799659729,-122.231597167,0.165352817633674,019e22edb1d139871b7256b440156361
"Highland Terrace, Alameda, CA",37.792463303,-122.232661277,0.191608442828689,ad215f5cf40226a31a71ef5fe3f0bac3
"Hiller Highlands, Alameda, CA",37.852552155,-122.228806422,0.234116291470422,ea0015c8ae84bff3fd3ed5e520bf51d4
"Holy Names University, Alameda, CA",37.80254217,-122.187090832,0.15362690107909,6d3f309cef3e7c22b2ec52088a3f2246
"Hoover, Alameda, CA",37.819953919,-122.272789446,0.296718004745357,37df8155746b609815c0728aa699228a
"Ironwood Estates, Alameda, CA",37.679378624,-121.861461299,0.123747339911346,9e27c917782a6d87ba9bb04ccc8cf6de
"Irvington, Alameda, CA",37.532338822,-121.961237654,0.936991577857092,cd71c00b2a5e18eb02c68611797093dc
"Isabel, Alameda, CA",37.703350537,-121.806157025,1.832052299198,bd08e625bf773a84a2581201818e5ddf
"Iveywood, Alameda, CA",37.743228241,-122.163802391,0.184938574522435,b4bd7db98860002c447c0e17d866953f
"Ivy Hill, Alameda, CA",37.79957661,-122.247281764,0.142558013451602,d0822929df3b04ec76e3ca4cde839550
"Jackson Triangle, Alameda, CA",37.656602461,-122.08113605,0.724848492207432,01f63e903d2dc5fdb5595caaa688d356
"Jefferson, Alameda, CA",37.780620575,-122.210215837,0.223654119435784,eca36e15897f2d7a0d9af7ab9e583efa
"Jensen, Alameda, CA",37.681825224,-121.748850575,0.981613454552981,1bb14d225ed1e3fd611bbc2e075f0083
"Jingletown, Alameda, CA",37.776511767,-122.234652049,0.468327457872243,86d174b236e0961a37b839c44f3cb248
"Joaquin Miller Park, Alameda, CA",37.811260374,-122.183038229,0.990819269982335,eee899803759c0c935708a263138575a
"Jordan Ranch, Alameda, CA",37.714512136,-121.848285442,0.0929271352764081,48dd53999eb367a3573521d8be5353cf
"Kensington, Alameda, CA",37.908652812,-122.278514941,0.994553117695257,39c4e36f4c07ca045574b01100bfc117
"Kimber / Gomes, Alameda, CA",37.550943375,-121.948094621,1.45302209013219,bee57a51c94437cac3bc194f72b20230
"Knowland State Arboretum and Park, Alameda, CA",37.753603622,-122.139450656,0.766916588966329,f9dca0ec5a2f2522ef85b8bf5255331f
"Kottinger Ranch, Alameda, CA",37.649661809,-121.853254065,0.358464209736263,67ecc227d5753bc8cdb30ab12da0b89b
"Kristopher Ranch, Alameda, CA",37.650129776,-121.78540428,0.0807862200371933,75fe2edbdf0da8a997fe0e6f7002cccb
"Laguna Oaks, Alameda, CA",37.660142038,-121.909389757,0.170965226158714,ab63617eaf044ae091038d0e29f5e1d2
"Lakes and Birds, Alameda, CA",37.583181558,-122.056387771,0.521620974639779,7776a20bcf225642ca26da9371ab1aa8
"Lakeshore, Alameda, CA",37.814245698,-122.238993622,0.263117964368734,b95f951585a127dd6e72436e5f93d8b3
"Lakeside, Alameda, CA",37.804699995,-122.26384608,0.102743669461269,0032818553d56197efd7410bc8683869
"Lakeside Park, Alameda, CA",37.807765961,-122.25878195,0.0758133317873235,71887c00eb33848babe29ec1fd7c966d
"Laney College, Alameda, CA",37.794382096,-122.261289173,0.143002102226902,540ad106df45473ef5b045aa9b9c6cdf
"Las Palmas, Alameda, CA",37.743877411,-122.155847127,0.154011026146732,5ce389ac21b9c6097576a2f7190c6110
"Laurel, Alameda, CA",37.791441642,-122.200660832,0.125932997032028,90253fdb14963465b64724217cfbfde9
"LeConte / South, Alameda, CA",37.857686997,-122.260457655,0.329024577802522,a741aa6f3f6a6106ce8dd8a7dad44c1c
"Leona Heights, Alameda, CA",37.788433655,-122.17473138,0.655604433507698,7a3ba4e2d11658462bdac874eea0439d
"Lincoln Highlands, Alameda, CA",37.804595743,-122.202277443,0.366668616898196,1455b32b0903c424038fe689320cc98a
"Lindenwood, Alameda, CA",37.67645495,-121.724568173,0.0590748204252402,57bd7f95204fd3370d83a8f034fb5ef8
"Lockwood-Tevis, Alameda, CA",37.76147461,-122.200256924,0.240202807549911,8dbd72b32486f40ad2eba175f6e54ee0
"Longfellow, Alameda, CA",37.830648423,-122.272740454,0.484156226141804,b6f8bac0f3e6284f0c358e554020c03f
"Longwood-Winton Grove, Alameda, CA",37.659079642,-122.108416227,0.457002101359201,e4a73c3108f45fc185285253abf2a33c
"Los Olivos, Alameda, CA",37.64748805,-121.772986931,0.16570474106624,6e15cc82163f4573e85a10324f407dde
"Marina, Alameda, CA",37.765955049,-122.228427895,0.0525754334002119,f273d0dd3861399bf844a4a179682c73
